{"radiusMi":150,"cap":50,"places":[{"place_id":"nps:denali","place_type":"national_park","towns":[{"name":"Nikolai, AK","bareName":"Nikolai","lat":63.00953,"lng":-154.37635,"distanceMi":100,"source":"gnis","rank":0},{"name":"Anderson, AK","bareName":"Anderson","lat":64.3074,"lng":-149.1562,"distanceMi":103,"source":"gnis","rank":1},{"name":"Houston, AK","bareName":"Houston","lat":61.61587,"lng":-149.8004,"distanceMi":113,"source":"gnis","rank":2},{"name":"Nenana, AK","bareName":"Nenana","lat":64.53837,"lng":-149.08558,"distanceMi":117,"source":"gnis","rank":3},{"name":"Wasilla, AK","bareName":"Wasilla","lat":61.57702,"lng":-149.46612,"distanceMi":120,"source":"gnis","rank":4},{"name":"Palmer, AK","bareName":"Palmer","lat":61.59717,"lng":-149.1147,"distanceMi":124,"source":"gnis","rank":5},{"name":"McGrath, AK","bareName":"McGrath","lat":62.94238,"lng":-155.56298,"distanceMi":137,"source":"gnis","rank":6},{"name":"Tanana, AK","bareName":"Tanana","lat":65.17462,"lng":-152.06866,"distanceMi":145,"source":"gnis","rank":7},{"name":"Anchorage, AK","bareName":"Anchorage","lat":61.14831,"lng":-149.19003,"distanceMi":150,"source":"gnis","rank":8}]},{"place_id":"nps:katmai","place_type":"national_park","towns":[{"name":"Port Lions, AK","bareName":"Port Lions","lat":57.87515,"lng":-152.86062,"distanceMi":60,"source":"gnis","rank":0},{"name":"Larsen Bay, AK","bareName":"Larsen Bay","lat":57.54077,"lng":-154.00331,"distanceMi":66,"source":"gnis","rank":1},{"name":"Ouzinkie, AK","bareName":"Ouzinkie","lat":57.92275,"lng":-152.4697,"distanceMi":69,"source":"gnis","rank":2},{"name":"Kodiak, AK","bareName":"Kodiak","lat":57.79147,"lng":-152.40825,"distanceMi":76,"source":"gnis","rank":3},{"name":"Newhalen, AK","bareName":"Newhalen","lat":59.72698,"lng":-154.89701,"distanceMi":91,"source":"gnis","rank":4},{"name":"Old Harbor, AK","bareName":"Old Harbor","lat":57.21154,"lng":-153.32662,"distanceMi":92,"source":"gnis","rank":5},{"name":"Seldovia, AK","bareName":"Seldovia","lat":59.43937,"lng":-151.7123,"distanceMi":104,"source":"gnis","rank":6},{"name":"Nondalton, AK","bareName":"Nondalton","lat":59.97109,"lng":-154.86271,"distanceMi":106,"source":"gnis","rank":7},{"name":"Akhiok, AK","bareName":"Akhiok","lat":56.94502,"lng":-154.21512,"distanceMi":108,"source":"gnis","rank":8},{"name":"Homer, AK","bareName":"Homer","lat":59.64352,"lng":-151.51271,"distanceMi":118,"source":"gnis","rank":9},{"name":"Kachemak, AK","bareName":"Kachemak","lat":59.67454,"lng":-151.43636,"distanceMi":122,"source":"gnis","rank":10},{"name":"Egegik, AK","bareName":"Egegik","lat":58.2317,"lng":-157.53552,"distanceMi":129,"source":"gnis","rank":11},{"name":"New Stuyahok, AK","bareName":"New Stuyahok","lat":59.47618,"lng":-157.27102,"distanceMi":135,"source":"gnis","rank":12},{"name":"Ekwok, AK","bareName":"Ekwok","lat":59.34619,"lng":-157.4861,"distanceMi":137,"source":"gnis","rank":13}]},{"place_id":"nps:glacier-bay","place_type":"national_park","towns":[{"name":"Gustavus, AK","bareName":"Gustavus","lat":58.41492,"lng":-135.73411,"distanceMi":45,"source":"gnis","rank":0},{"name":"Pelican, AK","bareName":"Pelican","lat":57.95769,"lng":-136.21777,"distanceMi":55,"source":"gnis","rank":1},{"name":"Hoonah, AK","bareName":"Hoonah","lat":58.11115,"lng":-135.42789,"distanceMi":66,"source":"gnis","rank":2},{"name":"Tenakee Springs, AK","bareName":"Tenakee Springs","lat":57.79048,"lng":-135.18951,"distanceMi":87,"source":"gnis","rank":3},{"name":"Juneau, AK","bareName":"Juneau","lat":58.44394,"lng":-134.23036,"distanceMi":97,"source":"gnis","rank":4},{"name":"Sitka, AK","bareName":"Sitka","lat":57.17978,"lng":-135.30499,"distanceMi":118,"source":"gnis","rank":5},{"name":"Angoon, AK","bareName":"Angoon","lat":57.45389,"lng":-134.51421,"distanceMi":121,"source":"gnis","rank":6}]},{"place_id":"nps:gates-of-the-arctic","place_type":"national_park","towns":[{"name":"Anaktuvuk Pass, AK","bareName":"Anaktuvuk Pass","lat":68.15,"lng":-151.71621,"distanceMi":48,"source":"gnis","rank":0},{"name":"Bettles, AK","bareName":"Bettles","lat":66.90884,"lng":-151.53618,"distanceMi":76,"source":"gnis","rank":1},{"name":"Allakaket, AK","bareName":"Allakaket","lat":66.55056,"lng":-152.62698,"distanceMi":87,"source":"gnis","rank":2},{"name":"Kobuk, AK","bareName":"Kobuk","lat":66.93102,"lng":-156.89387,"distanceMi":112,"source":"gnis","rank":3},{"name":"Shungnak, AK","bareName":"Shungnak","lat":66.88052,"lng":-157.14997,"distanceMi":120,"source":"gnis","rank":4},{"name":"Hughes, AK","bareName":"Hughes","lat":66.04522,"lng":-154.23765,"distanceMi":123,"source":"gnis","rank":5},{"name":"Ambler, AK","bareName":"Ambler","lat":67.0897,"lng":-157.87257,"distanceMi":130,"source":"gnis","rank":6}]},{"place_id":"nps:kobuk-valley","place_type":"national_park","towns":[{"name":"Ambler, AK","bareName":"Ambler","lat":67.0897,"lng":-157.87257,"distanceMi":38,"source":"gnis","rank":0},{"name":"Kiana, AK","bareName":"Kiana","lat":66.97259,"lng":-160.43439,"distanceMi":44,"source":"gnis","rank":1},{"name":"Selawik, AK","bareName":"Selawik","lat":66.59882,"lng":-159.99958,"distanceMi":57,"source":"gnis","rank":2},{"name":"Shungnak, AK","bareName":"Shungnak","lat":66.88052,"lng":-157.14997,"distanceMi":62,"source":"gnis","rank":3},{"name":"Noorvik, AK","bareName":"Noorvik","lat":66.82921,"lng":-161.03765,"distanceMi":63,"source":"gnis","rank":4},{"name":"Kobuk, AK","bareName":"Kobuk","lat":66.93102,"lng":-156.89387,"distanceMi":67,"source":"gnis","rank":5},{"name":"Kotzebue, AK","bareName":"Kotzebue","lat":66.8767,"lng":-162.52326,"distanceMi":97,"source":"gnis","rank":6},{"name":"Buckland, AK","bareName":"Buckland","lat":65.97844,"lng":-161.13412,"distanceMi":110,"source":"gnis","rank":7},{"name":"Deering, AK","bareName":"Deering","lat":66.07219,"lng":-162.74393,"distanceMi":133,"source":"gnis","rank":8},{"name":"Huslia, AK","bareName":"Huslia","lat":65.70013,"lng":-156.33858,"distanceMi":138,"source":"gnis","rank":9},{"name":"Kivalina, AK","bareName":"Kivalina","lat":67.73174,"lng":-164.52144,"distanceMi":145,"source":"gnis","rank":10}]},{"place_id":"nps:lake-clark","place_type":"national_park","towns":[{"name":"Kenai, AK","bareName":"Kenai","lat":60.56153,"lng":-151.20841,"distanceMi":80,"source":"gnis","rank":0},{"name":"Nondalton, AK","bareName":"Nondalton","lat":59.97109,"lng":-154.86271,"distanceMi":85,"source":"gnis","rank":1},{"name":"Soldotna, AK","bareName":"Soldotna","lat":60.48625,"lng":-151.06678,"distanceMi":86,"source":"gnis","rank":2},{"name":"Newhalen, AK","bareName":"Newhalen","lat":59.72698,"lng":-154.89701,"distanceMi":100,"source":"gnis","rank":3},{"name":"Kachemak, AK","bareName":"Kachemak","lat":59.67454,"lng":-151.43636,"distanceMi":112,"source":"gnis","rank":4},{"name":"Homer, AK","bareName":"Homer","lat":59.64352,"lng":-151.51271,"distanceMi":113,"source":"gnis","rank":5},{"name":"Seldovia, AK","bareName":"Seldovia","lat":59.43937,"lng":-151.7123,"distanceMi":121,"source":"gnis","rank":6},{"name":"Houston, AK","bareName":"Houston","lat":61.61587,"lng":-149.8004,"distanceMi":128,"source":"gnis","rank":7},{"name":"Wasilla, AK","bareName":"Wasilla","lat":61.57702,"lng":-149.46612,"distanceMi":138,"source":"gnis","rank":8},{"name":"Anchorage, AK","bareName":"Anchorage","lat":61.14831,"lng":-149.19003,"distanceMi":142,"source":"gnis","rank":9},{"name":"Nikolai, AK","bareName":"Nikolai","lat":63.00953,"lng":-154.37635,"distanceMi":144,"source":"gnis","rank":10},{"name":"Palmer, AK","bareName":"Palmer","lat":61.59717,"lng":-149.1147,"distanceMi":149,"source":"gnis","rank":11},{"name":"Seward, AK","bareName":"Seward","lat":60.10883,"lng":-149.39501,"distanceMi":149,"source":"gnis","rank":12}]},{"place_id":"nps:kenai-fjords","place_type":"national_park","towns":[{"name":"Seward, AK","bareName":"Seward","lat":60.10883,"lng":-149.39501,"distanceMi":29,"source":"gnis","rank":0},{"name":"Kachemak, AK","bareName":"Kachemak","lat":59.67454,"lng":-151.43636,"distanceMi":48,"source":"gnis","rank":1},{"name":"Soldotna, AK","bareName":"Soldotna","lat":60.48625,"lng":-151.06678,"distanceMi":50,"source":"gnis","rank":2},{"name":"Homer, AK","bareName":"Homer","lat":59.64352,"lng":-151.51271,"distanceMi":51,"source":"gnis","rank":3},{"name":"Kenai, AK","bareName":"Kenai","lat":60.56153,"lng":-151.20841,"distanceMi":57,"source":"gnis","rank":4},{"name":"Seldovia, AK","bareName":"Seldovia","lat":59.43937,"lng":-151.7123,"distanceMi":64,"source":"gnis","rank":5},{"name":"Whittier, AK","bareName":"Whittier","lat":60.78814,"lng":-148.6371,"distanceMi":79,"source":"gnis","rank":6},{"name":"Anchorage, AK","bareName":"Anchorage","lat":61.14831,"lng":-149.19003,"distanceMi":91,"source":"gnis","rank":7},{"name":"Wasilla, AK","bareName":"Wasilla","lat":61.57702,"lng":-149.46612,"distanceMi":117,"source":"gnis","rank":8},{"name":"Houston, AK","bareName":"Houston","lat":61.61587,"lng":-149.8004,"distanceMi":118,"source":"gnis","rank":9},{"name":"Palmer, AK","bareName":"Palmer","lat":61.59717,"lng":-149.1147,"distanceMi":121,"source":"gnis","rank":10}]},{"place_id":"nps:wrangell-st-elias","place_type":"national_park","towns":[{"name":"Cordova, AK","bareName":"Cordova","lat":60.53976,"lng":-145.62706,"distanceMi":121,"source":"gnis","rank":0},{"name":"Valdez, AK","bareName":"Valdez","lat":61.09551,"lng":-146.3043,"distanceMi":126,"source":"gnis","rank":1}]},{"place_id":"nps:grand-canyon","place_type":"national_park","towns":[{"name":"Tusayan / Grand Canyon Village, AZ","bareName":"Tusayan","lat":35.9803,"lng":-112.1235,"distanceMi":5,"source":"curated","rank":0},{"name":"San Juan Southern Paiute Southern Area, AZ","bareName":"San Juan Southern Paiute Southern Area","lat":36.20719,"lng":-111.36025,"distanceMi":45,"source":"gnis","rank":1},{"name":"Williams, AZ","bareName":"Williams","lat":35.24762,"lng":-112.1833,"distanceMi":56,"source":"gnis","rank":2},{"name":"Fredonia, AZ","bareName":"Fredonia","lat":36.9617,"lng":-112.51953,"distanceMi":66,"source":"gnis","rank":3},{"name":"Flagstaff, AZ","bareName":"Flagstaff","lat":35.18722,"lng":-111.61949,"distanceMi":67,"source":"gnis","rank":4},{"name":"RU251, AZ","bareName":"RU251","lat":36.22388,"lng":-110.95442,"distanceMi":67,"source":"gnis","rank":5},{"name":"RU551, AZ","bareName":"RU551","lat":35.87533,"lng":-110.93711,"distanceMi":68,"source":"gnis","rank":6},{"name":"RU255, AZ","bareName":"RU255","lat":36.04547,"lng":-110.91749,"distanceMi":68,"source":"gnis","rank":7},{"name":"Kanab, AZ","bareName":"Kanab","lat":37.02688,"lng":-112.50482,"distanceMi":70,"source":"gnis","rank":8},{"name":"Page, AZ","bareName":"Page","lat":36.94262,"lng":-111.50715,"distanceMi":71,"source":"gnis","rank":9},{"name":"RU552, AZ","bareName":"RU552","lat":35.72131,"lng":-110.92842,"distanceMi":72,"source":"gnis","rank":10},{"name":"RU554, AZ","bareName":"RU554","lat":35.60537,"lng":-110.94901,"distanceMi":74,"source":"gnis","rank":11},{"name":"Big Water, AZ","bareName":"Big Water","lat":37.07288,"lng":-111.66078,"distanceMi":75,"source":"gnis","rank":12},{"name":"RU256, AZ","bareName":"RU256","lat":36.0694,"lng":-110.79521,"distanceMi":75,"source":"gnis","rank":13},{"name":"RU252, AZ","bareName":"RU252","lat":36.32062,"lng":-110.81009,"distanceMi":76,"source":"gnis","rank":14},{"name":"RU253, AZ","bareName":"RU253","lat":36.22081,"lng":-110.79859,"distanceMi":76,"source":"gnis","rank":15},{"name":"RU553, AZ","bareName":"RU553","lat":35.6303,"lng":-110.8501,"distanceMi":78,"source":"gnis","rank":16},{"name":"Colorado City, AZ","bareName":"Colorado City","lat":36.97733,"lng":-112.98687,"distanceMi":79,"source":"gnis","rank":17},{"name":"Hildale, AZ","bareName":"Hildale","lat":37.00912,"lng":-112.99951,"distanceMi":81,"source":"gnis","rank":18},{"name":"RU257, AZ","bareName":"RU257","lat":36.08281,"lng":-110.69014,"distanceMi":81,"source":"gnis","rank":19},{"name":"RU555, AZ","bareName":"RU555","lat":35.55574,"lng":-110.76778,"distanceMi":84,"source":"gnis","rank":20},{"name":"RU260, AZ","bareName":"RU260","lat":36.24321,"lng":-110.65942,"distanceMi":84,"source":"gnis","rank":21},{"name":"RU259, AZ","bareName":"RU259","lat":36.17263,"lng":-110.62574,"distanceMi":85,"source":"gnis","rank":22},{"name":"Sedona, AZ","bareName":"Sedona","lat":34.85821,"lng":-111.79415,"distanceMi":85,"source":"gnis","rank":23},{"name":"RU254, AZ","bareName":"RU254","lat":36.3466,"lng":-110.64701,"distanceMi":86,"source":"gnis","rank":24},{"name":"RU258, AZ","bareName":"RU258","lat":36.01747,"lng":-110.60367,"distanceMi":86,"source":"gnis","rank":25},{"name":"Orderville, AZ","bareName":"Orderville","lat":37.25397,"lng":-112.6574,"distanceMi":88,"source":"gnis","rank":26},{"name":"Apple Valley, AZ","bareName":"Apple Valley","lat":37.08098,"lng":-113.10344,"distanceMi":89,"source":"gnis","rank":27},{"name":"RU261, AZ","bareName":"RU261","lat":36.28425,"lng":-110.56449,"distanceMi":89,"source":"gnis","rank":28},{"name":"Clarkdale, AZ","bareName":"Clarkdale","lat":34.75012,"lng":-112.05552,"distanceMi":90,"source":"gnis","rank":29},{"name":"Jerome, AZ","bareName":"Jerome","lat":34.74709,"lng":-112.10753,"distanceMi":90,"source":"gnis","rank":30},{"name":"RU556, AZ","bareName":"RU556","lat":35.53953,"lng":-110.67006,"distanceMi":90,"source":"gnis","rank":31},{"name":"Cottonwood, AZ","bareName":"Cottonwood","lat":34.75087,"lng":-111.984,"distanceMi":90,"source":"gnis","rank":32},{"name":"Springdale, AZ","bareName":"Springdale","lat":37.18168,"lng":-113.00502,"distanceMi":91,"source":"gnis","rank":33},{"name":"Chino Valley, AZ","bareName":"Chino Valley","lat":34.75937,"lng":-112.41198,"distanceMi":91,"source":"gnis","rank":34},{"name":"Rockville, AZ","bareName":"Rockville","lat":37.14783,"lng":-113.0548,"distanceMi":91,"source":"gnis","rank":35},{"name":"Glendale, AZ","bareName":"Glendale","lat":37.33424,"lng":-112.60351,"distanceMi":92,"source":"gnis","rank":36},{"name":"RU262, AZ","bareName":"RU262","lat":36.21637,"lng":-110.48148,"distanceMi":93,"source":"gnis","rank":37},{"name":"RU263, AZ","bareName":"RU263","lat":36.3552,"lng":-110.43873,"distanceMi":97,"source":"gnis","rank":38},{"name":"Alton, AZ","bareName":"Alton","lat":37.43033,"lng":-112.50615,"distanceMi":97,"source":"gnis","rank":39},{"name":"RU351, AZ","bareName":"RU351","lat":36.0377,"lng":-110.41274,"distanceMi":97,"source":"gnis","rank":40},{"name":"Virgin, AZ","bareName":"Virgin","lat":37.19474,"lng":-113.20555,"distanceMi":98,"source":"gnis","rank":41},{"name":"RU557, AZ","bareName":"RU557","lat":35.53953,"lng":-110.48358,"distanceMi":99,"source":"gnis","rank":42},{"name":"Hurricane, AZ","bareName":"Hurricane","lat":37.14877,"lng":-113.35166,"distanceMi":101,"source":"gnis","rank":43},{"name":"Prescott Valley, AZ","bareName":"Prescott Valley","lat":34.59794,"lng":-112.31855,"distanceMi":101,"source":"gnis","rank":44},{"name":"RU558, AZ","bareName":"RU558","lat":35.56299,"lng":-110.42024,"distanceMi":102,"source":"gnis","rank":45},{"name":"San Juan Southern Paiute Northern Area, AZ","bareName":"San Juan Southern Paiute Northern Area","lat":37.04656,"lng":-110.78233,"distanceMi":102,"source":"gnis","rank":46},{"name":"La Verkin, AZ","bareName":"La Verkin","lat":37.23154,"lng":-113.25056,"distanceMi":102,"source":"gnis","rank":47},{"name":"Prescott, AZ","bareName":"Prescott","lat":34.58533,"lng":-112.44708,"distanceMi":103,"source":"gnis","rank":48},{"name":"Camp Verde, AZ","bareName":"Camp Verde","lat":34.56896,"lng":-111.85604,"distanceMi":104,"source":"gnis","rank":49}]},{"place_id":"nps:saguaro","place_type":"national_park","towns":[{"name":"Tucson, AZ","bareName":"Tucson","lat":32.2226,"lng":-110.9747,"distanceMi":12,"source":"curated","rank":0},{"name":"Marana, AZ","bareName":"Marana","lat":32.4355,"lng":-111.15585,"distanceMi":10,"source":"gnis","rank":1},{"name":"South Tucson, AZ","bareName":"South Tucson","lat":32.19548,"lng":-110.96916,"distanceMi":13,"source":"gnis","rank":2},{"name":"Oro Valley, AZ","bareName":"Oro Valley","lat":32.42051,"lng":-110.97669,"distanceMi":14,"source":"gnis","rank":3},{"name":"Rancho de Martinez, AZ","bareName":"Rancho de Martinez","lat":32.10619,"lng":-110.99733,"distanceMi":16,"source":"gnis","rank":4},{"name":"Sahuarita, AZ","bareName":"Sahuarita","lat":31.93226,"lng":-110.96541,"distanceMi":28,"source":"gnis","rank":5},{"name":"San Ignacio de la Canoa, AZ","bareName":"San Ignacio de la Canoa","lat":31.82398,"lng":-110.99649,"distanceMi":34,"source":"gnis","rank":6},{"name":"Mammoth, AZ","bareName":"Mammoth","lat":32.68519,"lng":-110.72927,"distanceMi":37,"source":"gnis","rank":7},{"name":"Eloy, AZ","bareName":"Eloy","lat":32.74707,"lng":-111.59921,"distanceMi":40,"source":"gnis","rank":8},{"name":"Coolidge, AZ","bareName":"Coolidge","lat":32.93421,"lng":-111.5273,"distanceMi":49,"source":"gnis","rank":9},{"name":"Winkelman, AZ","bareName":"Winkelman","lat":32.98526,"lng":-110.76504,"distanceMi":53,"source":"gnis","rank":10},{"name":"Hayden, AZ","bareName":"Hayden","lat":32.99952,"lng":-110.78144,"distanceMi":53,"source":"gnis","rank":11},{"name":"Kearny, AZ","bareName":"Kearny","lat":33.05635,"lng":-110.90742,"distanceMi":55,"source":"gnis","rank":12},{"name":"Florence, AZ","bareName":"Florence","lat":33.05903,"lng":-111.42083,"distanceMi":55,"source":"gnis","rank":13},{"name":"Casa Grande, AZ","bareName":"Casa Grande","lat":32.90693,"lng":-111.76354,"distanceMi":55,"source":"gnis","rank":14},{"name":"Benson, AZ","bareName":"Benson","lat":31.91573,"lng":-110.32567,"distanceMi":56,"source":"gnis","rank":15},{"name":"Patagonia, AZ","bareName":"Patagonia","lat":31.54359,"lng":-110.7477,"distanceMi":58,"source":"gnis","rank":16},{"name":"San Jose de Sonoita, AZ","bareName":"San Jose de Sonoita","lat":31.46288,"lng":-110.97232,"distanceMi":59,"source":"gnis","rank":17},{"name":"San Ignacio del Babocomari, AZ","bareName":"San Ignacio del Babocomari","lat":31.6426,"lng":-110.43037,"distanceMi":62,"source":"gnis","rank":18},{"name":"San Tan Valley, AZ","bareName":"San Tan Valley","lat":33.18958,"lng":-111.54121,"distanceMi":65,"source":"gnis","rank":19},{"name":"Nogales, AZ","bareName":"Nogales","lat":31.36247,"lng":-110.93367,"distanceMi":66,"source":"gnis","rank":20},{"name":"Superior, AZ","bareName":"Superior","lat":33.27162,"lng":-111.12417,"distanceMi":67,"source":"gnis","rank":21},{"name":"Huachuca City, AZ","bareName":"Huachuca City","lat":31.63081,"lng":-110.3422,"distanceMi":67,"source":"gnis","rank":22},{"name":"Maria Santisima del Carmen, AZ","bareName":"Maria Santisima del Carmen","lat":31.34872,"lng":-110.8326,"distanceMi":68,"source":"gnis","rank":23},{"name":"Queen Creek, AZ","bareName":"Queen Creek","lat":33.24466,"lng":-111.61684,"distanceMi":71,"source":"gnis","rank":24},{"name":"San Juan de las Boguillas y Nogales, AZ","bareName":"San Juan de las Boguillas y Nogales","lat":31.69926,"lng":-110.18759,"distanceMi":71,"source":"gnis","rank":25},{"name":"San Rafael de la Zanja, AZ","bareName":"San Rafael de la Zanja","lat":31.40233,"lng":-110.57648,"distanceMi":71,"source":"gnis","rank":26},{"name":"Maricopa, AZ","bareName":"Maricopa","lat":33.04083,"lng":-112.00106,"distanceMi":71,"source":"gnis","rank":27},{"name":"Sierra Vista, AZ","bareName":"Sierra Vista","lat":31.56298,"lng":-110.31532,"distanceMi":71,"source":"gnis","rank":28},{"name":"Tombstone, AZ","bareName":"Tombstone","lat":31.72341,"lng":-110.07981,"distanceMi":75,"source":"gnis","rank":29},{"name":"Gilbert, AZ","bareName":"Gilbert","lat":33.31001,"lng":-111.74622,"distanceMi":78,"source":"gnis","rank":30},{"name":"Apache Junction, AZ","bareName":"Apache Junction","lat":33.38142,"lng":-111.54003,"distanceMi":78,"source":"gnis","rank":31},{"name":"Miami, AZ","bareName":"Miami","lat":33.39507,"lng":-110.87239,"distanceMi":78,"source":"gnis","rank":32},{"name":"Willcox, AZ","bareName":"Willcox","lat":32.25151,"lng":-109.83589,"distanceMi":78,"source":"gnis","rank":33},{"name":"San Rafael del Valle, AZ","bareName":"San Rafael del Valle","lat":31.55899,"lng":-110.14342,"distanceMi":79,"source":"gnis","rank":34},{"name":"Chandler, AZ","bareName":"Chandler","lat":33.28241,"lng":-111.85133,"distanceMi":79,"source":"gnis","rank":35},{"name":"Globe, AZ","bareName":"Globe","lat":33.38696,"lng":-110.75145,"distanceMi":79,"source":"gnis","rank":36},{"name":"Mesa, AZ","bareName":"Mesa","lat":33.40053,"lng":-111.71678,"distanceMi":83,"source":"gnis","rank":37},{"name":"Pima, AZ","bareName":"Pima","lat":32.88857,"lng":-109.84371,"distanceMi":87,"source":"gnis","rank":38},{"name":"Guadalupe, AZ","bareName":"Guadalupe","lat":33.36646,"lng":-111.96317,"distanceMi":87,"source":"gnis","rank":39},{"name":"Tempe, AZ","bareName":"Tempe","lat":33.38814,"lng":-111.93189,"distanceMi":88,"source":"gnis","rank":40},{"name":"Thatcher, AZ","bareName":"Thatcher","lat":32.84806,"lng":-109.75644,"distanceMi":91,"source":"gnis","rank":41},{"name":"Safford, AZ","bareName":"Safford","lat":32.8335,"lng":-109.69646,"distanceMi":93,"source":"gnis","rank":42},{"name":"Fountain Hills, AZ","bareName":"Fountain Hills","lat":33.60728,"lng":-111.73982,"distanceMi":96,"source":"gnis","rank":43},{"name":"Goodyear, AZ","bareName":"Goodyear","lat":33.26141,"lng":-112.3622,"distanceMi":96,"source":"gnis","rank":44},{"name":"Bisbee, AZ","bareName":"Bisbee","lat":31.3943,"lng":-109.93186,"distanceMi":96,"source":"gnis","rank":45},{"name":"Avondale, AZ","bareName":"Avondale","lat":33.31936,"lng":-112.33902,"distanceMi":98,"source":"gnis","rank":46},{"name":"Paradise Valley, AZ","bareName":"Paradise Valley","lat":33.54342,"lng":-111.95954,"distanceMi":98,"source":"gnis","rank":47},{"name":"Gila Bend, AZ","bareName":"Gila Bend","lat":32.96625,"lng":-112.71547,"distanceMi":101,"source":"gnis","rank":48},{"name":"Tolleson, AZ","bareName":"Tolleson","lat":33.44837,"lng":-112.25602,"distanceMi":102,"source":"gnis","rank":49}]},{"place_id":"nps:petrified-forest","place_type":"national_park","towns":[{"name":"Holbrook, AZ","bareName":"Holbrook","lat":34.90438,"lng":-110.16724,"distanceMi":22,"source":"gnis","rank":0},{"name":"Snowflake, AZ","bareName":"Snowflake","lat":34.52259,"lng":-110.09131,"distanceMi":36,"source":"gnis","rank":1},{"name":"Saint Johns, AZ","bareName":"Saint Johns","lat":34.50185,"lng":-109.37845,"distanceMi":41,"source":"gnis","rank":2},{"name":"Taylor, AZ","bareName":"Taylor","lat":34.43933,"lng":-110.10182,"distanceMi":42,"source":"gnis","rank":3},{"name":"RU561, AZ","bareName":"RU561","lat":35.59191,"lng":-110.13554,"distanceMi":46,"source":"gnis","rank":4},{"name":"Winslow Tract, AZ","bareName":"Winslow Tract","lat":35.07759,"lng":-110.5858,"distanceMi":46,"source":"gnis","rank":5},{"name":"RU560, AZ","bareName":"RU560","lat":35.5955,"lng":-110.19624,"distanceMi":48,"source":"gnis","rank":6},{"name":"RU559, AZ","bareName":"RU559","lat":35.56136,"lng":-110.3308,"distanceMi":50,"source":"gnis","rank":7},{"name":"RU566, AZ","bareName":"RU566","lat":35.67299,"lng":-110.03252,"distanceMi":50,"source":"gnis","rank":8},{"name":"RU563, AZ","bareName":"RU563","lat":35.63908,"lng":-110.1982,"distanceMi":51,"source":"gnis","rank":9},{"name":"Show Low, AZ","bareName":"Show Low","lat":34.26711,"lng":-110.0384,"distanceMi":51,"source":"gnis","rank":10},{"name":"RU567, AZ","bareName":"RU567","lat":35.70596,"lng":-110.07249,"distanceMi":52,"source":"gnis","rank":11},{"name":"Winslow, AZ","bareName":"Winslow","lat":35.02432,"lng":-110.70958,"distanceMi":52,"source":"gnis","rank":12},{"name":"RU565, AZ","bareName":"RU565","lat":35.67369,"lng":-110.13772,"distanceMi":52,"source":"gnis","rank":13},{"name":"RU568, AZ","bareName":"RU568","lat":35.72775,"lng":-110.0295,"distanceMi":53,"source":"gnis","rank":14},{"name":"RU562, AZ","bareName":"RU562","lat":35.6398,"lng":-110.29656,"distanceMi":54,"source":"gnis","rank":15},{"name":"RU558, AZ","bareName":"RU558","lat":35.56299,"lng":-110.42024,"distanceMi":54,"source":"gnis","rank":16},{"name":"RU557, AZ","bareName":"RU557","lat":35.53953,"lng":-110.48358,"distanceMi":55,"source":"gnis","rank":17},{"name":"RU569, AZ","bareName":"RU569","lat":35.75709,"lng":-110.0472,"distanceMi":55,"source":"gnis","rank":18},{"name":"RU564, AZ","bareName":"RU564","lat":35.69486,"lng":-110.24562,"distanceMi":56,"source":"gnis","rank":19},{"name":"RU570, AZ","bareName":"RU570","lat":35.79039,"lng":-110.03943,"distanceMi":58,"source":"gnis","rank":20},{"name":"Pinetop-Lakeside, AZ","bareName":"Pinetop-Lakeside","lat":34.14857,"lng":-109.96578,"distanceMi":59,"source":"gnis","rank":21},{"name":"RU571, AZ","bareName":"RU571","lat":35.8196,"lng":-110.05298,"distanceMi":60,"source":"gnis","rank":22},{"name":"RU572, AZ","bareName":"RU572","lat":35.83789,"lng":-110.08958,"distanceMi":61,"source":"gnis","rank":23},{"name":"RU556, AZ","bareName":"RU556","lat":35.53953,"lng":-110.67006,"distanceMi":63,"source":"gnis","rank":24},{"name":"Springerville, AZ","bareName":"Springerville","lat":34.15607,"lng":-109.2989,"distanceMi":64,"source":"gnis","rank":25},{"name":"RU573, AZ","bareName":"RU573","lat":35.90259,"lng":-110.06608,"distanceMi":65,"source":"gnis","rank":26},{"name":"Eagar, AZ","bareName":"Eagar","lat":34.10578,"lng":-109.29997,"distanceMi":67,"source":"gnis","rank":27},{"name":"RU555, AZ","bareName":"RU555","lat":35.55574,"lng":-110.76778,"distanceMi":68,"source":"gnis","rank":28},{"name":"Gallup, AZ","bareName":"Gallup","lat":35.51818,"lng":-108.74303,"distanceMi":70,"source":"gnis","rank":29},{"name":"RU451, AZ","bareName":"RU451","lat":35.96275,"lng":-110.1794,"distanceMi":71,"source":"gnis","rank":30},{"name":"RU553, AZ","bareName":"RU553","lat":35.6303,"lng":-110.8501,"distanceMi":75,"source":"gnis","rank":31},{"name":"RU554, AZ","bareName":"RU554","lat":35.60537,"lng":-110.94901,"distanceMi":78,"source":"gnis","rank":32},{"name":"RU351, AZ","bareName":"RU351","lat":36.0377,"lng":-110.41274,"distanceMi":81,"source":"gnis","rank":33},{"name":"RU552, AZ","bareName":"RU552","lat":35.72131,"lng":-110.92842,"distanceMi":82,"source":"gnis","rank":34},{"name":"RU258, AZ","bareName":"RU258","lat":36.01747,"lng":-110.60367,"distanceMi":85,"source":"gnis","rank":35},{"name":"RU551, AZ","bareName":"RU551","lat":35.87533,"lng":-110.93711,"distanceMi":89,"source":"gnis","rank":36},{"name":"RU257, AZ","bareName":"RU257","lat":36.08281,"lng":-110.69014,"distanceMi":91,"source":"gnis","rank":37},{"name":"RU262, AZ","bareName":"RU262","lat":36.21637,"lng":-110.48148,"distanceMi":94,"source":"gnis","rank":38},{"name":"RU256, AZ","bareName":"RU256","lat":36.0694,"lng":-110.79521,"distanceMi":94,"source":"gnis","rank":39},{"name":"Star Valley, AZ","bareName":"Star Valley","lat":34.26106,"lng":-111.21974,"distanceMi":95,"source":"gnis","rank":40},{"name":"RU259, AZ","bareName":"RU259","lat":36.17263,"lng":-110.62574,"distanceMi":95,"source":"gnis","rank":41},{"name":"RU255, AZ","bareName":"RU255","lat":36.04547,"lng":-110.91749,"distanceMi":97,"source":"gnis","rank":42},{"name":"RU260, AZ","bareName":"RU260","lat":36.24321,"lng":-110.65942,"distanceMi":100,"source":"gnis","rank":43},{"name":"RU261, AZ","bareName":"RU261","lat":36.28425,"lng":-110.56449,"distanceMi":100,"source":"gnis","rank":44},{"name":"Payson, AZ","bareName":"Payson","lat":34.24335,"lng":-111.31948,"distanceMi":101,"source":"gnis","rank":45},{"name":"RU263, AZ","bareName":"RU263","lat":36.3552,"lng":-110.43873,"distanceMi":102,"source":"gnis","rank":46},{"name":"RU253, AZ","bareName":"RU253","lat":36.22081,"lng":-110.79859,"distanceMi":103,"source":"gnis","rank":47},{"name":"Flagstaff, AZ","bareName":"Flagstaff","lat":35.18722,"lng":-111.61949,"distanceMi":105,"source":"gnis","rank":48},{"name":"RU254, AZ","bareName":"RU254","lat":36.3466,"lng":-110.64701,"distanceMi":106,"source":"gnis","rank":49}]},{"place_id":"nps:hot-springs","place_type":"national_park","towns":[{"name":"Hot Springs, AR","bareName":"Hot Springs","lat":34.48911,"lng":-93.05007,"distanceMi":2,"source":"gnis","rank":0},{"name":"Mountain Pine, AR","bareName":"Mountain Pine","lat":34.56932,"lng":-93.17257,"distanceMi":8,"source":"gnis","rank":1},{"name":"Diamondhead, AR","bareName":"Diamondhead","lat":34.43592,"lng":-92.95837,"distanceMi":8,"source":"gnis","rank":2},{"name":"Fountain Lake, AR","bareName":"Fountain Lake","lat":34.60985,"lng":-92.91978,"distanceMi":9,"source":"gnis","rank":3},{"name":"Lonsdale, AR","bareName":"Lonsdale","lat":34.54497,"lng":-92.81057,"distanceMi":13,"source":"gnis","rank":4},{"name":"Magnet Cove, AR","bareName":"Magnet Cove","lat":34.43833,"lng":-92.83749,"distanceMi":13,"source":"gnis","rank":5},{"name":"Malvern, AR","bareName":"Malvern","lat":34.3734,"lng":-92.82045,"distanceMi":16,"source":"gnis","rank":6},{"name":"Rockport, AR","bareName":"Rockport","lat":34.40684,"lng":-92.80776,"distanceMi":16,"source":"gnis","rank":7},{"name":"Perla, AR","bareName":"Perla","lat":34.36476,"lng":-92.77623,"distanceMi":19,"source":"gnis","rank":8},{"name":"Midway, AR","bareName":"Midway","lat":34.25269,"lng":-92.96876,"distanceMi":19,"source":"gnis","rank":9},{"name":"Friendship, AR","bareName":"Friendship","lat":34.22435,"lng":-93.00367,"distanceMi":21,"source":"gnis","rank":10},{"name":"Donaldson, AR","bareName":"Donaldson","lat":34.23498,"lng":-92.91952,"distanceMi":21,"source":"gnis","rank":11},{"name":"Caddo Valley, AR","bareName":"Caddo Valley","lat":34.19699,"lng":-93.04896,"distanceMi":22,"source":"gnis","rank":12},{"name":"Traskwood, AR","bareName":"Traskwood","lat":34.45334,"lng":-92.66424,"distanceMi":22,"source":"gnis","rank":13},{"name":"Haskell, AR","bareName":"Haskell","lat":34.50959,"lng":-92.64057,"distanceMi":23,"source":"gnis","rank":14},{"name":"Benton, AR","bareName":"Benton","lat":34.57759,"lng":-92.57131,"distanceMi":27,"source":"gnis","rank":15},{"name":"Arkadelphia, AR","bareName":"Arkadelphia","lat":34.12542,"lng":-93.07345,"distanceMi":27,"source":"gnis","rank":16},{"name":"Tull, AR","bareName":"Tull","lat":34.44092,"lng":-92.57791,"distanceMi":27,"source":"gnis","rank":17},{"name":"Poyen, AR","bareName":"Poyen","lat":34.32418,"lng":-92.64198,"distanceMi":27,"source":"gnis","rank":18},{"name":"Amity, AR","bareName":"Amity","lat":34.2662,"lng":-93.46343,"distanceMi":30,"source":"gnis","rank":19},{"name":"Bauxite, AR","bareName":"Bauxite","lat":34.56025,"lng":-92.49903,"distanceMi":31,"source":"gnis","rank":20},{"name":"Glenwood, AR","bareName":"Glenwood","lat":34.32785,"lng":-93.53074,"distanceMi":31,"source":"gnis","rank":21},{"name":"Bryant, AR","bareName":"Bryant","lat":34.61524,"lng":-92.49142,"distanceMi":32,"source":"gnis","rank":22},{"name":"Prattsville, AR","bareName":"Prattsville","lat":34.31717,"lng":-92.54287,"distanceMi":32,"source":"gnis","rank":23},{"name":"Gum Springs, AR","bareName":"Gum Springs","lat":34.06394,"lng":-93.09572,"distanceMi":32,"source":"gnis","rank":24},{"name":"Mount Ida, AR","bareName":"Mount Ida","lat":34.5509,"lng":-93.63093,"distanceMi":34,"source":"gnis","rank":25},{"name":"Alexander, AR","bareName":"Alexander","lat":34.6186,"lng":-92.45122,"distanceMi":34,"source":"gnis","rank":26},{"name":"Leola, AR","bareName":"Leola","lat":34.17009,"lng":-92.59142,"distanceMi":35,"source":"gnis","rank":27},{"name":"Casa, AR","bareName":"Casa","lat":35.02531,"lng":-93.04483,"distanceMi":35,"source":"gnis","rank":28},{"name":"Plainview, AR","bareName":"Plainview","lat":34.98988,"lng":-93.29795,"distanceMi":35,"source":"gnis","rank":29},{"name":"Adona, AR","bareName":"Adona","lat":35.03994,"lng":-92.89914,"distanceMi":37,"source":"gnis","rank":30},{"name":"Shannon Hills, AR","bareName":"Shannon Hills","lat":34.61957,"lng":-92.40218,"distanceMi":37,"source":"gnis","rank":31},{"name":"Norman, AR","bareName":"Norman","lat":34.45844,"lng":-93.67919,"distanceMi":37,"source":"gnis","rank":32},{"name":"Perryville, AR","bareName":"Perryville","lat":35.01201,"lng":-92.80294,"distanceMi":37,"source":"gnis","rank":33},{"name":"Ola, AR","bareName":"Ola","lat":35.03104,"lng":-93.22437,"distanceMi":37,"source":"gnis","rank":34},{"name":"Black Springs, AR","bareName":"Black Springs","lat":34.46072,"lng":-93.71234,"distanceMi":38,"source":"gnis","rank":35},{"name":"Perry, AR","bareName":"Perry","lat":35.04582,"lng":-92.79477,"distanceMi":39,"source":"gnis","rank":36},{"name":"Fourche, AR","bareName":"Fourche","lat":34.99336,"lng":-92.61903,"distanceMi":40,"source":"gnis","rank":37},{"name":"Antoine, AR","bareName":"Antoine","lat":34.03432,"lng":-93.42262,"distanceMi":40,"source":"gnis","rank":38},{"name":"Okolona, AR","bareName":"Okolona","lat":34.00048,"lng":-93.33763,"distanceMi":40,"source":"gnis","rank":39},{"name":"Bigelow, AR","bareName":"Bigelow","lat":34.9978,"lng":-92.63118,"distanceMi":40,"source":"gnis","rank":40},{"name":"Sheridan, AR","bareName":"Sheridan","lat":34.2586,"lng":-92.42266,"distanceMi":40,"source":"gnis","rank":41},{"name":"Little Rock, AR","bareName":"Little Rock","lat":34.72567,"lng":-92.35786,"distanceMi":41,"source":"gnis","rank":42},{"name":"Houston, AR","bareName":"Houston","lat":35.03489,"lng":-92.69453,"distanceMi":41,"source":"gnis","rank":43},{"name":"Gurdon, AR","bareName":"Gurdon","lat":33.91546,"lng":-93.15446,"distanceMi":42,"source":"gnis","rank":44},{"name":"Danville, AR","bareName":"Danville","lat":35.05291,"lng":-93.39021,"distanceMi":42,"source":"gnis","rank":45},{"name":"Carthage, AR","bareName":"Carthage","lat":34.07261,"lng":-92.55532,"distanceMi":42,"source":"gnis","rank":46},{"name":"Cammack Village, AR","bareName":"Cammack Village","lat":34.78081,"lng":-92.34498,"distanceMi":43,"source":"gnis","rank":47},{"name":"Maumelle, AR","bareName":"Maumelle","lat":34.85222,"lng":-92.40003,"distanceMi":43,"source":"gnis","rank":48},{"name":"Oden, AR","bareName":"Oden","lat":34.6215,"lng":-93.7862,"distanceMi":43,"source":"gnis","rank":49}]},{"place_id":"nps:death-valley","place_type":"national_park","towns":[{"name":"Furnace Creek, CA","bareName":"Furnace Creek","lat":36.4642,"lng":-116.8694,"distanceMi":6,"source":"curated","rank":0},{"name":"Ridgecrest, CA","bareName":"Ridgecrest","lat":35.63072,"lng":-117.66217,"distanceMi":74,"source":"gnis","rank":1},{"name":"Las Vegas, CA","bareName":"Las Vegas","lat":36.23337,"lng":-115.26543,"distanceMi":95,"source":"gnis","rank":2},{"name":"Bishop, CA","bareName":"Bishop","lat":37.36654,"lng":-118.39585,"distanceMi":99,"source":"gnis","rank":3},{"name":"North Las Vegas, CA","bareName":"North Las Vegas","lat":36.28884,"lng":-115.08747,"distanceMi":104,"source":"gnis","rank":4},{"name":"California City, CA","bareName":"California City","lat":35.15778,"lng":-117.87208,"distanceMi":109,"source":"gnis","rank":5},{"name":"Henderson, CA","bareName":"Henderson","lat":36.01327,"lng":-115.03817,"distanceMi":111,"source":"gnis","rank":6},{"name":"Barstow, CA","bareName":"Barstow","lat":34.86605,"lng":-117.04712,"distanceMi":115,"source":"gnis","rank":7},{"name":"Porterville, CA","bareName":"Porterville","lat":36.06443,"lng":-119.03373,"distanceMi":121,"source":"gnis","rank":8},{"name":"Woodlake, CA","bareName":"Woodlake","lat":36.41306,"lng":-119.10055,"distanceMi":121,"source":"gnis","rank":9},{"name":"Lindsay, CA","bareName":"Lindsay","lat":36.2082,"lng":-119.08972,"distanceMi":122,"source":"gnis","rank":10},{"name":"Boulder City, CA","bareName":"Boulder City","lat":35.84073,"lng":-114.92569,"distanceMi":122,"source":"gnis","rank":11},{"name":"Exeter, CA","bareName":"Exeter","lat":36.29408,"lng":-119.14597,"distanceMi":124,"source":"gnis","rank":12},{"name":"Tehachapi, CA","bareName":"Tehachapi","lat":35.13243,"lng":-118.44254,"distanceMi":128,"source":"gnis","rank":13},{"name":"Farmersville, CA","bareName":"Farmersville","lat":36.30475,"lng":-119.20862,"distanceMi":128,"source":"gnis","rank":14},{"name":"El Tejon, CA","bareName":"El Tejon","lat":35.2883,"lng":-118.71705,"distanceMi":132,"source":"gnis","rank":15},{"name":"Orange Cove, CA","bareName":"Orange Cove","lat":36.62115,"lng":-119.31876,"distanceMi":133,"source":"gnis","rank":16},{"name":"Visalia, CA","bareName":"Visalia","lat":36.32763,"lng":-119.32687,"distanceMi":134,"source":"gnis","rank":17},{"name":"Mammoth Lakes, CA","bareName":"Mammoth Lakes","lat":37.62727,"lng":-118.98996,"distanceMi":136,"source":"gnis","rank":18},{"name":"Tulare, CA","bareName":"Tulare","lat":36.20006,"lng":-119.33999,"distanceMi":136,"source":"gnis","rank":19},{"name":"Dinuba, CA","bareName":"Dinuba","lat":36.54533,"lng":-119.39866,"distanceMi":137,"source":"gnis","rank":20},{"name":"Adelanto, CA","bareName":"Adelanto","lat":34.5814,"lng":-117.4397,"distanceMi":138,"source":"gnis","rank":21},{"name":"Apple Valley, CA","bareName":"Apple Valley","lat":34.53521,"lng":-117.21091,"distanceMi":139,"source":"gnis","rank":22},{"name":"Delano, CA","bareName":"Delano","lat":35.76616,"lng":-119.26354,"distanceMi":140,"source":"gnis","rank":23},{"name":"Reedley, CA","bareName":"Reedley","lat":36.59901,"lng":-119.44705,"distanceMi":140,"source":"gnis","rank":24},{"name":"Victorville, CA","bareName":"Victorville","lat":34.52773,"lng":-117.35363,"distanceMi":141,"source":"gnis","rank":25},{"name":"Arvin, CA","bareName":"Arvin","lat":35.19437,"lng":-118.83058,"distanceMi":141,"source":"gnis","rank":26},{"name":"McFarland, CA","bareName":"McFarland","lat":35.67618,"lng":-119.23169,"distanceMi":141,"source":"gnis","rank":27},{"name":"Bakersfield, CA","bareName":"Bakersfield","lat":35.35285,"lng":-119.03587,"distanceMi":143,"source":"gnis","rank":28},{"name":"Parlier, CA","bareName":"Parlier","lat":36.6087,"lng":-119.54338,"distanceMi":145,"source":"gnis","rank":29},{"name":"Lancaster, CA","bareName":"Lancaster","lat":34.69345,"lng":-118.17533,"distanceMi":145,"source":"gnis","rank":30},{"name":"Kingsburg, CA","bareName":"Kingsburg","lat":36.51991,"lng":-119.55269,"distanceMi":145,"source":"gnis","rank":31},{"name":"Sanger, CA","bareName":"Sanger","lat":36.69897,"lng":-119.5575,"distanceMi":146,"source":"gnis","rank":32},{"name":"Shafter, CA","bareName":"Shafter","lat":35.47942,"lng":-119.20131,"distanceMi":146,"source":"gnis","rank":33},{"name":"Hesperia, CA","bareName":"Hesperia","lat":34.39756,"lng":-117.31469,"distanceMi":149,"source":"gnis","rank":34},{"name":"Palmdale, CA","bareName":"Palmdale","lat":34.59444,"lng":-118.10572,"distanceMi":149,"source":"gnis","rank":35},{"name":"Selma, CA","bareName":"Selma","lat":36.57155,"lng":-119.61428,"distanceMi":149,"source":"gnis","rank":36},{"name":"Corcoran, CA","bareName":"Corcoran","lat":36.08407,"lng":-119.56129,"distanceMi":150,"source":"gnis","rank":37}]},{"place_id":"nps:joshua-tree","place_type":"national_park","towns":[{"name":"Joshua Tree / Twentynine Palms, CA","bareName":"Joshua Tree","lat":34.1347,"lng":-116.3131,"distanceMi":30,"source":"curated","rank":0},{"name":"Coachella, CA","bareName":"Coachella","lat":33.69038,"lng":-116.14314,"distanceMi":19,"source":"gnis","rank":1},{"name":"Twentynine Palms, CA","bareName":"Twentynine Palms","lat":34.14782,"lng":-116.06597,"distanceMi":21,"source":"gnis","rank":2},{"name":"Indio, CA","bareName":"Indio","lat":33.73461,"lng":-116.23464,"distanceMi":21,"source":"gnis","rank":3},{"name":"La Quinta, CA","bareName":"La Quinta","lat":33.65357,"lng":-116.2785,"distanceMi":26,"source":"gnis","rank":4},{"name":"Palm Desert, CA","bareName":"Palm Desert","lat":33.73779,"lng":-116.3695,"distanceMi":28,"source":"gnis","rank":5},{"name":"Indian Wells, CA","bareName":"Indian Wells","lat":33.70366,"lng":-116.33957,"distanceMi":28,"source":"gnis","rank":6},{"name":"Rancho Mirage, CA","bareName":"Rancho Mirage","lat":33.76346,"lng":-116.4271,"distanceMi":31,"source":"gnis","rank":7},{"name":"Cathedral City, CA","bareName":"Cathedral City","lat":33.83614,"lng":-116.46425,"distanceMi":32,"source":"gnis","rank":8},{"name":"Yucca Valley, CA","bareName":"Yucca Valley","lat":34.12336,"lng":-116.42157,"distanceMi":34,"source":"gnis","rank":9},{"name":"Palm Springs, CA","bareName":"Palm Springs","lat":33.80165,"lng":-116.53817,"distanceMi":37,"source":"gnis","rank":10},{"name":"Desert Hot Springs, CA","bareName":"Desert Hot Springs","lat":33.95489,"lng":-116.54284,"distanceMi":37,"source":"gnis","rank":11},{"name":"Calipatria, CA","bareName":"Calipatria","lat":33.16928,"lng":-115.49226,"distanceMi":54,"source":"gnis","rank":12},{"name":"Banning, CA","bareName":"Banning","lat":33.94592,"lng":-116.89906,"distanceMi":57,"source":"gnis","rank":13},{"name":"Westmorland, CA","bareName":"Westmorland","lat":33.03893,"lng":-115.62233,"distanceMi":60,"source":"gnis","rank":14},{"name":"Beaumont, CA","bareName":"Beaumont","lat":33.89497,"lng":-116.95161,"distanceMi":60,"source":"gnis","rank":15},{"name":"San Jacinto Viejo, CA","bareName":"San Jacinto Viejo","lat":33.78308,"lng":-116.96365,"distanceMi":61,"source":"gnis","rank":16},{"name":"San Jose Del Valle, CA","bareName":"San Jose Del Valle","lat":33.28393,"lng":-116.69031,"distanceMi":61,"source":"gnis","rank":17},{"name":"Big Bear Lake, CA","bareName":"Big Bear Lake","lat":34.2429,"lng":-116.89528,"distanceMi":62,"source":"gnis","rank":18},{"name":"San Jacinto, CA","bareName":"San Jacinto","lat":33.79695,"lng":-116.99154,"distanceMi":63,"source":"gnis","rank":19},{"name":"Hemet, CA","bareName":"Hemet","lat":33.73407,"lng":-116.99682,"distanceMi":64,"source":"gnis","rank":20},{"name":"Valle De San Jose, CA","bareName":"Valle De San Jose","lat":33.23699,"lng":-116.70448,"distanceMi":64,"source":"gnis","rank":21},{"name":"Valle De San Felipe, CA","bareName":"Valle De San Felipe","lat":33.10088,"lng":-116.51475,"distanceMi":64,"source":"gnis","rank":22},{"name":"Brawley, CA","bareName":"Brawley","lat":32.97836,"lng":-115.52868,"distanceMi":65,"source":"gnis","rank":23},{"name":"Yucaipa, CA","bareName":"Yucaipa","lat":34.03359,"lng":-117.04291,"distanceMi":66,"source":"gnis","rank":24},{"name":"Tract Between San Jacinto and San Gorgonio, CA","bareName":"Tract Between San Jacinto and San Gorgonio","lat":33.96697,"lng":-117.06088,"distanceMi":67,"source":"gnis","rank":25},{"name":"Calimesa, CA","bareName":"Calimesa","lat":33.98736,"lng":-117.05423,"distanceMi":67,"source":"gnis","rank":26},{"name":"San Jacinto Nuevo Y Potrero, CA","bareName":"San Jacinto Nuevo Y Potrero","lat":33.84836,"lng":-117.07504,"distanceMi":67,"source":"gnis","rank":27},{"name":"Santa Ysabel, CA","bareName":"Santa Ysabel","lat":33.1456,"lng":-116.70976,"distanceMi":69,"source":"gnis","rank":28},{"name":"Cuca, CA","bareName":"Cuca","lat":33.28421,"lng":-116.89143,"distanceMi":70,"source":"gnis","rank":29},{"name":"Pauba, CA","bareName":"Pauba","lat":33.52531,"lng":-117.03921,"distanceMi":70,"source":"gnis","rank":30},{"name":"Pauma, CA","bareName":"Pauma","lat":33.31893,"lng":-116.96059,"distanceMi":72,"source":"gnis","rank":31},{"name":"Guejito, CA","bareName":"Guejito","lat":33.19199,"lng":-116.8992,"distanceMi":74,"source":"gnis","rank":32},{"name":"Imperial, CA","bareName":"Imperial","lat":32.83888,"lng":-115.57185,"distanceMi":74,"source":"gnis","rank":33},{"name":"Little Temecula, CA","bareName":"Little Temecula","lat":33.46615,"lng":-117.10032,"distanceMi":74,"source":"gnis","rank":34},{"name":"Highland, CA","bareName":"Highland","lat":34.1113,"lng":-117.16506,"distanceMi":74,"source":"gnis","rank":35},{"name":"Redlands, CA","bareName":"Redlands","lat":34.05115,"lng":-117.17121,"distanceMi":74,"source":"gnis","rank":36},{"name":"Cuyamaca, CA","bareName":"Cuyamaca","lat":32.94616,"lng":-116.57614,"distanceMi":75,"source":"gnis","rank":37},{"name":"Menifee, CA","bareName":"Menifee","lat":33.69094,"lng":-117.18489,"distanceMi":75,"source":"gnis","rank":38},{"name":"Moreno Valley, CA","bareName":"Moreno Valley","lat":33.92439,"lng":-117.20459,"distanceMi":75,"source":"gnis","rank":39},{"name":"Temecula, CA","bareName":"Temecula","lat":33.49279,"lng":-117.13144,"distanceMi":75,"source":"gnis","rank":40},{"name":"Perris, CA","bareName":"Perris","lat":33.78982,"lng":-117.22336,"distanceMi":76,"source":"gnis","rank":41},{"name":"Murrieta, CA","bareName":"Murrieta","lat":33.57191,"lng":-117.19083,"distanceMi":77,"source":"gnis","rank":42},{"name":"Loma Linda, CA","bareName":"Loma Linda","lat":34.04265,"lng":-117.2481,"distanceMi":78,"source":"gnis","rank":43},{"name":"El Centro, CA","bareName":"El Centro","lat":32.78589,"lng":-115.55939,"distanceMi":78,"source":"gnis","rank":44},{"name":"Canyon Lake, CA","bareName":"Canyon Lake","lat":33.6883,"lng":-117.26205,"distanceMi":79,"source":"gnis","rank":45},{"name":"Holtville, CA","bareName":"Holtville","lat":32.81294,"lng":-115.37808,"distanceMi":79,"source":"gnis","rank":46},{"name":"Blythe, CA","bareName":"Blythe","lat":33.61096,"lng":-114.55864,"distanceMi":79,"source":"gnis","rank":47},{"name":"San Bernardino, CA","bareName":"San Bernardino","lat":34.08863,"lng":-117.28061,"distanceMi":80,"source":"gnis","rank":48},{"name":"Wildomar, CA","bareName":"Wildomar","lat":33.61728,"lng":-117.25832,"distanceMi":80,"source":"gnis","rank":49}]},{"place_id":"nps:channel-islands","place_type":"national_park","towns":[{"name":"Santa Barbara, CA","bareName":"Santa Barbara","lat":34.39981,"lng":-119.71309,"distanceMi":27,"source":"gnis","rank":0},{"name":"Las Positas Y La Calera, CA","bareName":"Las Positas Y La Calera","lat":34.42611,"lng":-119.76737,"distanceMi":29,"source":"gnis","rank":1},{"name":"Carpinteria, CA","bareName":"Carpinteria","lat":34.37741,"lng":-119.5136,"distanceMi":30,"source":"gnis","rank":2},{"name":"Goleta, CA","bareName":"Goleta","lat":34.43601,"lng":-119.85972,"distanceMi":30,"source":"gnis","rank":3},{"name":"La Goleta, CA","bareName":"La Goleta","lat":34.43639,"lng":-119.80571,"distanceMi":30,"source":"gnis","rank":4},{"name":"Lands of Mission Santa Barbara, CA","bareName":"Lands of Mission Santa Barbara","lat":34.445,"lng":-119.7082,"distanceMi":31,"source":"gnis","rank":5},{"name":"Los Dos Pueblos, CA","bareName":"Los Dos Pueblos","lat":34.44861,"lng":-119.93626,"distanceMi":32,"source":"gnis","rank":6},{"name":"El Rincon, CA","bareName":"El Rincon","lat":34.38806,"lng":-119.46541,"distanceMi":32,"source":"gnis","rank":7},{"name":"Cañada De San Miguelito, CA","bareName":"Cañada De San Miguelito","lat":34.325,"lng":-119.32679,"distanceMi":34,"source":"gnis","rank":8},{"name":"Port Hueneme, CA","bareName":"Port Hueneme","lat":34.16121,"lng":-119.20371,"distanceMi":35,"source":"gnis","rank":9},{"name":"San Miguel, CA","bareName":"San Miguel","lat":34.25779,"lng":-119.24401,"distanceMi":35,"source":"gnis","rank":10},{"name":"Oxnard, CA","bareName":"Oxnard","lat":34.20054,"lng":-119.21426,"distanceMi":35,"source":"gnis","rank":11},{"name":"San Buenaventura, CA","bareName":"San Buenaventura","lat":34.26753,"lng":-119.2543,"distanceMi":35,"source":"gnis","rank":12},{"name":"Cañada del Corral, CA","bareName":"Cañada del Corral","lat":34.48472,"lng":-120.03377,"distanceMi":36,"source":"gnis","rank":13},{"name":"Los Prietos Y Najalayegua, CA","bareName":"Los Prietos Y Najalayegua","lat":34.53472,"lng":-119.64876,"distanceMi":37,"source":"gnis","rank":14},{"name":"Santa Ana, CA","bareName":"Santa Ana","lat":34.41139,"lng":-119.33013,"distanceMi":38,"source":"gnis","rank":15},{"name":"Canada Larga o Verde, CA","bareName":"Canada Larga o Verde","lat":34.35223,"lng":-119.27124,"distanceMi":38,"source":"gnis","rank":16},{"name":"Rio De Santa Clara, CA","bareName":"Rio De Santa Clara","lat":34.18084,"lng":-119.14178,"distanceMi":38,"source":"gnis","rank":17},{"name":"Santa Clara Del Norte, CA","bareName":"Santa Clara Del Norte","lat":34.24779,"lng":-119.14317,"distanceMi":40,"source":"gnis","rank":18},{"name":"Nuestra Señora Del Refugio, CA","bareName":"Nuestra Señora Del Refugio","lat":34.48472,"lng":-120.18155,"distanceMi":40,"source":"gnis","rank":19},{"name":"San Marcos, CA","bareName":"San Marcos","lat":34.595,"lng":-119.83543,"distanceMi":41,"source":"gnis","rank":20},{"name":"Tequepis, CA","bareName":"Tequepis","lat":34.58388,"lng":-119.93265,"distanceMi":41,"source":"gnis","rank":21},{"name":"Santa Paula Y Saticoy, CA","bareName":"Santa Paula Y Saticoy","lat":34.29362,"lng":-119.14595,"distanceMi":41,"source":"gnis","rank":22},{"name":"Lomas De La Purificacion, CA","bareName":"Lomas De La Purificacion","lat":34.5736,"lng":-120.04571,"distanceMi":42,"source":"gnis","rank":23},{"name":"Ex Mission San Buenaventura, CA","bareName":"Ex Mission San Buenaventura","lat":34.35973,"lng":-119.17623,"distanceMi":42,"source":"gnis","rank":24},{"name":"Ojai, CA","bareName":"Ojai","lat":34.44871,"lng":-119.247,"distanceMi":43,"source":"gnis","rank":25},{"name":"Guadalasca, CA","bareName":"Guadalasca","lat":34.10973,"lng":-119.02039,"distanceMi":44,"source":"gnis","rank":26},{"name":"Solvang, CA","bareName":"Solvang","lat":34.59352,"lng":-120.14018,"distanceMi":45,"source":"gnis","rank":27},{"name":"Nojoqui, CA","bareName":"Nojoqui","lat":34.57471,"lng":-120.15988,"distanceMi":45,"source":"gnis","rank":28},{"name":"Camarillo, CA","bareName":"Camarillo","lat":34.223,"lng":-119.03217,"distanceMi":45,"source":"gnis","rank":29},{"name":"Las Cruces, CA","bareName":"Las Cruces","lat":34.5286,"lng":-120.23572,"distanceMi":45,"source":"gnis","rank":30},{"name":"Santa Paula, CA","bareName":"Santa Paula","lat":34.35449,"lng":-119.06554,"distanceMi":47,"source":"gnis","rank":31},{"name":"Cañada De Los Pinos Or College Rancho, CA","bareName":"Cañada De Los Pinos Or College Rancho","lat":34.64749,"lng":-120.03599,"distanceMi":47,"source":"gnis","rank":32},{"name":"Calleguas, CA","bareName":"Calleguas","lat":34.22084,"lng":-118.98011,"distanceMi":48,"source":"gnis","rank":33},{"name":"Buellton, CA","bareName":"Buellton","lat":34.6153,"lng":-120.19443,"distanceMi":48,"source":"gnis","rank":34},{"name":"San Julian, CA","bareName":"San Julian","lat":34.54555,"lng":-120.32434,"distanceMi":49,"source":"gnis","rank":35},{"name":"Las Posas, CA","bareName":"Las Posas","lat":34.28167,"lng":-118.98872,"distanceMi":49,"source":"gnis","rank":36},{"name":"Santa Rosa, CA","bareName":"Santa Rosa","lat":34.60332,"lng":-120.28489,"distanceMi":50,"source":"gnis","rank":37},{"name":"San Carlos De Jonata, CA","bareName":"San Carlos De Jonata","lat":34.65193,"lng":-120.16961,"distanceMi":50,"source":"gnis","rank":38},{"name":"El Conejo, CA","bareName":"El Conejo","lat":34.18973,"lng":-118.884,"distanceMi":53,"source":"gnis","rank":39},{"name":"Corral De Quati, CA","bareName":"Corral De Quati","lat":34.7136,"lng":-120.15572,"distanceMi":53,"source":"gnis","rank":40},{"name":"Thousand Oaks, CA","bareName":"Thousand Oaks","lat":34.19136,"lng":-118.87559,"distanceMi":53,"source":"gnis","rank":41},{"name":"La Zaca, CA","bareName":"La Zaca","lat":34.75277,"lng":-120.12322,"distanceMi":55,"source":"gnis","rank":42},{"name":"Westlake Village, CA","bareName":"Westlake Village","lat":34.13691,"lng":-118.82204,"distanceMi":55,"source":"gnis","rank":43},{"name":"Moorpark, CA","bareName":"Moorpark","lat":34.28614,"lng":-118.87683,"distanceMi":55,"source":"gnis","rank":44},{"name":"Cañada De Salsipuedes, CA","bareName":"Cañada De Salsipuedes","lat":34.60888,"lng":-120.40017,"distanceMi":55,"source":"gnis","rank":45},{"name":"Fillmore, CA","bareName":"Fillmore","lat":34.39896,"lng":-118.91747,"distanceMi":56,"source":"gnis","rank":46},{"name":"Malibu, CA","bareName":"Malibu","lat":34.02585,"lng":-118.80482,"distanceMi":56,"source":"gnis","rank":47},{"name":"La Laguna, CA","bareName":"La Laguna","lat":34.78332,"lng":-120.13433,"distanceMi":57,"source":"gnis","rank":48},{"name":"Santa Rita, CA","bareName":"Santa Rita","lat":34.65999,"lng":-120.3974,"distanceMi":57,"source":"gnis","rank":49}]},{"place_id":"nps:kings-canyon","place_type":"national_park","towns":[{"name":"Three Rivers, CA","bareName":"Three Rivers","lat":36.4386,"lng":-118.9023,"distanceMi":37,"source":"curated","rank":0},{"name":"Bishop, CA","bareName":"Bishop","lat":37.36654,"lng":-118.39585,"distanceMi":34,"source":"gnis","rank":1},{"name":"Woodlake, CA","bareName":"Woodlake","lat":36.41306,"lng":-119.10055,"distanceMi":45,"source":"gnis","rank":2},{"name":"Orange Cove, CA","bareName":"Orange Cove","lat":36.62115,"lng":-119.31876,"distanceMi":46,"source":"gnis","rank":3},{"name":"Dinuba, CA","bareName":"Dinuba","lat":36.54533,"lng":-119.39866,"distanceMi":52,"source":"gnis","rank":4},{"name":"Exeter, CA","bareName":"Exeter","lat":36.29408,"lng":-119.14597,"distanceMi":53,"source":"gnis","rank":5},{"name":"Reedley, CA","bareName":"Reedley","lat":36.59901,"lng":-119.44705,"distanceMi":53,"source":"gnis","rank":6},{"name":"Farmersville, CA","bareName":"Farmersville","lat":36.30475,"lng":-119.20862,"distanceMi":54,"source":"gnis","rank":7},{"name":"Lindsay, CA","bareName":"Lindsay","lat":36.2082,"lng":-119.08972,"distanceMi":56,"source":"gnis","rank":8},{"name":"Mammoth Lakes, CA","bareName":"Mammoth Lakes","lat":37.62727,"lng":-118.98996,"distanceMi":56,"source":"gnis","rank":9},{"name":"Sanger, CA","bareName":"Sanger","lat":36.69897,"lng":-119.5575,"distanceMi":57,"source":"gnis","rank":10},{"name":"Visalia, CA","bareName":"Visalia","lat":36.32763,"lng":-119.32687,"distanceMi":58,"source":"gnis","rank":11},{"name":"Parlier, CA","bareName":"Parlier","lat":36.6087,"lng":-119.54338,"distanceMi":58,"source":"gnis","rank":12},{"name":"Kingsburg, CA","bareName":"Kingsburg","lat":36.51991,"lng":-119.55269,"distanceMi":61,"source":"gnis","rank":13},{"name":"Clovis, CA","bareName":"Clovis","lat":36.82858,"lng":-119.68286,"distanceMi":62,"source":"gnis","rank":14},{"name":"Porterville, CA","bareName":"Porterville","lat":36.06443,"lng":-119.03373,"distanceMi":63,"source":"gnis","rank":15},{"name":"Selma, CA","bareName":"Selma","lat":36.57155,"lng":-119.61428,"distanceMi":63,"source":"gnis","rank":16},{"name":"Tulare, CA","bareName":"Tulare","lat":36.20006,"lng":-119.33999,"distanceMi":64,"source":"gnis","rank":17},{"name":"Fowler, CA","bareName":"Fowler","lat":36.62413,"lng":-119.67471,"distanceMi":65,"source":"gnis","rank":18},{"name":"Fresno, CA","bareName":"Fresno","lat":36.783,"lng":-119.7939,"distanceMi":69,"source":"gnis","rank":19},{"name":"Hanford, CA","bareName":"Hanford","lat":36.32752,"lng":-119.65503,"distanceMi":72,"source":"gnis","rank":20},{"name":"Big Tree, CA","bareName":"Big Tree","lat":37.50994,"lng":-119.60211,"distanceMi":72,"source":"gnis","rank":21},{"name":"Laguna de Tache, CA","bareName":"Laguna de Tache","lat":36.41718,"lng":-119.7982,"distanceMi":76,"source":"gnis","rank":22},{"name":"Corcoran, CA","bareName":"Corcoran","lat":36.08407,"lng":-119.56129,"distanceMi":79,"source":"gnis","rank":23},{"name":"Lemoore, CA","bareName":"Lemoore","lat":36.29493,"lng":-119.79834,"distanceMi":80,"source":"gnis","rank":24},{"name":"Kerman, CA","bareName":"Kerman","lat":36.72505,"lng":-120.06249,"distanceMi":84,"source":"gnis","rank":25},{"name":"Madera, CA","bareName":"Madera","lat":36.96318,"lng":-120.07793,"distanceMi":84,"source":"gnis","rank":26},{"name":"Delano, CA","bareName":"Delano","lat":35.76616,"lng":-119.26354,"distanceMi":87,"source":"gnis","rank":27},{"name":"McFarland, CA","bareName":"McFarland","lat":35.67618,"lng":-119.23169,"distanceMi":92,"source":"gnis","rank":28},{"name":"San Joaquin, CA","bareName":"San Joaquin","lat":36.60557,"lng":-120.18993,"distanceMi":93,"source":"gnis","rank":29},{"name":"Chowchilla, CA","bareName":"Chowchilla","lat":37.1095,"lng":-120.23496,"distanceMi":94,"source":"gnis","rank":30},{"name":"Las Mariposas, CA","bareName":"Las Mariposas","lat":37.52661,"lng":-120.09714,"distanceMi":96,"source":"gnis","rank":31},{"name":"Huron, CA","bareName":"Huron","lat":36.20424,"lng":-120.09532,"distanceMi":98,"source":"gnis","rank":32},{"name":"Wasco, CA","bareName":"Wasco","lat":35.59379,"lng":-119.36711,"distanceMi":100,"source":"gnis","rank":33},{"name":"Ridgecrest, CA","bareName":"Ridgecrest","lat":35.63072,"lng":-117.66217,"distanceMi":100,"source":"gnis","rank":34},{"name":"Mendota, CA","bareName":"Mendota","lat":36.75553,"lng":-120.37761,"distanceMi":101,"source":"gnis","rank":35},{"name":"Shafter, CA","bareName":"Shafter","lat":35.47942,"lng":-119.20131,"distanceMi":104,"source":"gnis","rank":36},{"name":"Firebaugh, CA","bareName":"Firebaugh","lat":36.85341,"lng":-120.4536,"distanceMi":105,"source":"gnis","rank":37},{"name":"Avenal, CA","bareName":"Avenal","lat":36.03112,"lng":-120.11617,"distanceMi":105,"source":"gnis","rank":38},{"name":"Bakersfield, CA","bareName":"Bakersfield","lat":35.35285,"lng":-119.03587,"distanceMi":109,"source":"gnis","rank":39},{"name":"Merced, CA","bareName":"Merced","lat":37.30573,"lng":-120.47791,"distanceMi":110,"source":"gnis","rank":40},{"name":"El Tejon, CA","bareName":"El Tejon","lat":35.2883,"lng":-118.71705,"distanceMi":111,"source":"gnis","rank":41},{"name":"Coalinga, CA","bareName":"Coalinga","lat":36.14555,"lng":-120.35467,"distanceMi":112,"source":"gnis","rank":42},{"name":"Dos Palos, CA","bareName":"Dos Palos","lat":36.98543,"lng":-120.63386,"distanceMi":115,"source":"gnis","rank":43},{"name":"Atwater, CA","bareName":"Atwater","lat":37.3529,"lng":-120.5959,"distanceMi":117,"source":"gnis","rank":44},{"name":"Arvin, CA","bareName":"Arvin","lat":35.19437,"lng":-118.83058,"distanceMi":118,"source":"gnis","rank":45},{"name":"Sanjon De Santa Rita, CA","bareName":"Sanjon De Santa Rita","lat":37.10578,"lng":-120.69437,"distanceMi":119,"source":"gnis","rank":46},{"name":"Tehachapi, CA","bareName":"Tehachapi","lat":35.13243,"lng":-118.44254,"distanceMi":121,"source":"gnis","rank":47},{"name":"Cholame, CA","bareName":"Cholame","lat":35.8008,"lng":-120.31794,"distanceMi":124,"source":"gnis","rank":48},{"name":"Livingston, CA","bareName":"Livingston","lat":37.38749,"lng":-120.72488,"distanceMi":124,"source":"gnis","rank":49}]},{"place_id":"nps:redwood","place_type":"national_park","towns":[{"name":"Trinidad, CA","bareName":"Trinidad","lat":41.05785,"lng":-124.14318,"distanceMi":13,"source":"gnis","rank":0},{"name":"Blue Lake, CA","bareName":"Blue Lake","lat":40.88158,"lng":-123.99393,"distanceMi":23,"source":"gnis","rank":1},{"name":"Arcata, CA","bareName":"Arcata","lat":40.86167,"lng":-124.07525,"distanceMi":25,"source":"gnis","rank":2},{"name":"Eureka, CA","bareName":"Eureka","lat":40.79715,"lng":-124.15443,"distanceMi":30,"source":"gnis","rank":3},{"name":"Crescent City, CA","bareName":"Crescent City","lat":41.75437,"lng":-124.19934,"distanceMi":39,"source":"gnis","rank":4},{"name":"Fortuna, CA","bareName":"Fortuna","lat":40.58617,"lng":-124.14199,"distanceMi":44,"source":"gnis","rank":5},{"name":"Ferndale, CA","bareName":"Ferndale","lat":40.57815,"lng":-124.26126,"distanceMi":46,"source":"gnis","rank":6},{"name":"Rio Dell, CA","bareName":"Rio Dell","lat":40.50315,"lng":-124.11147,"distanceMi":49,"source":"gnis","rank":7},{"name":"Etna, CA","bareName":"Etna","lat":41.45819,"lng":-122.89457,"distanceMi":60,"source":"gnis","rank":8},{"name":"Brookings, CA","bareName":"Brookings","lat":42.06761,"lng":-124.30314,"distanceMi":61,"source":"gnis","rank":9},{"name":"Fort Jones, CA","bareName":"Fort Jones","lat":41.60846,"lng":-122.84108,"distanceMi":66,"source":"gnis","rank":10},{"name":"Cave Junction, CA","bareName":"Cave Junction","lat":42.16731,"lng":-123.64746,"distanceMi":68,"source":"gnis","rank":11},{"name":"Yreka, CA","bareName":"Yreka","lat":41.72926,"lng":-122.63116,"distanceMi":80,"source":"gnis","rank":12},{"name":"Gold Beach, CA","bareName":"Gold Beach","lat":42.37735,"lng":-124.41418,"distanceMi":83,"source":"gnis","rank":13},{"name":"Montague, CA","bareName":"Montague","lat":41.72755,"lng":-122.53033,"distanceMi":84,"source":"gnis","rank":14},{"name":"Weed, CA","bareName":"Weed","lat":41.41276,"lng":-122.38164,"distanceMi":85,"source":"gnis","rank":15},{"name":"Mount Shasta, CA","bareName":"Mount Shasta","lat":41.3207,"lng":-122.31505,"distanceMi":88,"source":"gnis","rank":16},{"name":"Dunsmuir, CA","bareName":"Dunsmuir","lat":41.23163,"lng":-122.27151,"distanceMi":90,"source":"gnis","rank":17},{"name":"Grants Pass, CA","bareName":"Grants Pass","lat":42.43337,"lng":-123.33163,"distanceMi":91,"source":"gnis","rank":18},{"name":"Jacksonville, CA","bareName":"Jacksonville","lat":42.31264,"lng":-122.96918,"distanceMi":93,"source":"gnis","rank":19},{"name":"Shasta Lake, CA","bareName":"Shasta Lake","lat":40.67904,"lng":-122.37753,"distanceMi":93,"source":"gnis","rank":20},{"name":"Ashland, CA","bareName":"Ashland","lat":42.19054,"lng":-122.69922,"distanceMi":95,"source":"gnis","rank":21},{"name":"Rogue River, CA","bareName":"Rogue River","lat":42.43549,"lng":-123.16825,"distanceMi":95,"source":"gnis","rank":22},{"name":"Talent, CA","bareName":"Talent","lat":42.24042,"lng":-122.78074,"distanceMi":95,"source":"gnis","rank":23},{"name":"Redding, CA","bareName":"Redding","lat":40.57026,"lng":-122.36559,"distanceMi":96,"source":"gnis","rank":24},{"name":"Phoenix, CA","bareName":"Phoenix","lat":42.27485,"lng":-122.8153,"distanceMi":96,"source":"gnis","rank":25},{"name":"Gold Hill, CA","bareName":"Gold Hill","lat":42.43579,"lng":-123.05265,"distanceMi":98,"source":"gnis","rank":26},{"name":"San Buena Ventura, CA","bareName":"San Buena Ventura","lat":40.50821,"lng":-122.38447,"distanceMi":98,"source":"gnis","rank":27},{"name":"Medford, CA","bareName":"Medford","lat":42.33642,"lng":-122.85148,"distanceMi":98,"source":"gnis","rank":28},{"name":"Central Point, CA","bareName":"Central Point","lat":42.37649,"lng":-122.91105,"distanceMi":98,"source":"gnis","rank":29},{"name":"Anderson, CA","bareName":"Anderson","lat":40.44967,"lng":-122.29504,"distanceMi":104,"source":"gnis","rank":30},{"name":"Eagle Point, CA","bareName":"Eagle Point","lat":42.46769,"lng":-122.80161,"distanceMi":107,"source":"gnis","rank":31},{"name":"Glendale, CA","bareName":"Glendale","lat":42.73806,"lng":-123.42937,"distanceMi":109,"source":"gnis","rank":32},{"name":"Port Orford, CA","bareName":"Port Orford","lat":42.74963,"lng":-124.49742,"distanceMi":109,"source":"gnis","rank":33},{"name":"Shady Cove, CA","bareName":"Shady Cove","lat":42.61172,"lng":-122.81786,"distanceMi":114,"source":"gnis","rank":34},{"name":"Powers, CA","bareName":"Powers","lat":42.88596,"lng":-124.07342,"distanceMi":116,"source":"gnis","rank":35},{"name":"Red Bluff, CA","bareName":"Red Bluff","lat":40.17347,"lng":-122.24128,"distanceMi":117,"source":"gnis","rank":36},{"name":"Butte Falls, CA","bareName":"Butte Falls","lat":42.54142,"lng":-122.56909,"distanceMi":118,"source":"gnis","rank":37},{"name":"Dorris, CA","bareName":"Dorris","lat":41.96439,"lng":-121.92056,"distanceMi":120,"source":"gnis","rank":38},{"name":"La Barranca Colorada, CA","bareName":"La Barranca Colorada","lat":40.10822,"lng":-122.21779,"distanceMi":121,"source":"gnis","rank":39},{"name":"Fort Bragg, CA","bareName":"Fort Bragg","lat":39.43969,"lng":-123.80145,"distanceMi":123,"source":"gnis","rank":40},{"name":"Las Flores, CA","bareName":"Las Flores","lat":40.07488,"lng":-122.17612,"distanceMi":124,"source":"gnis","rank":41},{"name":"El Primer Canon or Rio de Los Berre, CA","bareName":"El Primer Canon or Rio de Los Berre","lat":40.14155,"lng":-122.11778,"distanceMi":124,"source":"gnis","rank":42},{"name":"Canyonville, CA","bareName":"Canyonville","lat":42.92731,"lng":-123.27893,"distanceMi":124,"source":"gnis","rank":43},{"name":"Riddle, CA","bareName":"Riddle","lat":42.95418,"lng":-123.3645,"distanceMi":125,"source":"gnis","rank":44},{"name":"Myrtle Point, CA","bareName":"Myrtle Point","lat":43.06172,"lng":-124.13277,"distanceMi":128,"source":"gnis","rank":45},{"name":"Saucos, CA","bareName":"Saucos","lat":40.01655,"lng":-122.14278,"distanceMi":128,"source":"gnis","rank":46},{"name":"Tehama, CA","bareName":"Tehama","lat":40.02178,"lng":-122.12691,"distanceMi":128,"source":"gnis","rank":47},{"name":"Rio De Los Molinos, CA","bareName":"Rio De Los Molinos","lat":40.04155,"lng":-122.09278,"distanceMi":129,"source":"gnis","rank":48},{"name":"Myrtle Creek, CA","bareName":"Myrtle Creek","lat":43.02268,"lng":-123.28126,"distanceMi":130,"source":"gnis","rank":49}]},{"place_id":"nps:lassen-volcanic","place_type":"national_park","towns":[{"name":"Susanville, CA","bareName":"Susanville","lat":40.42119,"lng":-120.65728,"distanceMi":40,"source":"gnis","rank":0},{"name":"El Primer Canon or Rio de Los Berre, CA","bareName":"El Primer Canon or Rio de Los Berre","lat":40.14155,"lng":-122.11778,"distanceMi":44,"source":"gnis","rank":1},{"name":"Anderson, CA","bareName":"Anderson","lat":40.44967,"lng":-122.29504,"distanceMi":46,"source":"gnis","rank":2},{"name":"Rio De Los Molinos, CA","bareName":"Rio De Los Molinos","lat":40.04155,"lng":-122.09278,"distanceMi":47,"source":"gnis","rank":3},{"name":"Red Bluff, CA","bareName":"Red Bluff","lat":40.17347,"lng":-122.24128,"distanceMi":49,"source":"gnis","rank":4},{"name":"Las Flores, CA","bareName":"Las Flores","lat":40.07488,"lng":-122.17612,"distanceMi":49,"source":"gnis","rank":5},{"name":"Redding, CA","bareName":"Redding","lat":40.57026,"lng":-122.36559,"distanceMi":50,"source":"gnis","rank":6},{"name":"La Barranca Colorada, CA","bareName":"La Barranca Colorada","lat":40.10822,"lng":-122.21779,"distanceMi":50,"source":"gnis","rank":7},{"name":"Tehama, CA","bareName":"Tehama","lat":40.02178,"lng":-122.12691,"distanceMi":50,"source":"gnis","rank":8},{"name":"Saucos, CA","bareName":"Saucos","lat":40.01655,"lng":-122.14278,"distanceMi":51,"source":"gnis","rank":9},{"name":"San Buena Ventura, CA","bareName":"San Buena Ventura","lat":40.50821,"lng":-122.38447,"distanceMi":51,"source":"gnis","rank":10},{"name":"Paradise, CA","bareName":"Paradise","lat":39.75582,"lng":-121.60633,"distanceMi":52,"source":"gnis","rank":11},{"name":"Shasta Lake, CA","bareName":"Shasta Lake","lat":40.67904,"lng":-122.37753,"distanceMi":52,"source":"gnis","rank":12},{"name":"Arroyo Chico, CA","bareName":"Arroyo Chico","lat":39.77156,"lng":-121.81138,"distanceMi":54,"source":"gnis","rank":13},{"name":"Chico, CA","bareName":"Chico","lat":39.75752,"lng":-121.81621,"distanceMi":55,"source":"gnis","rank":14},{"name":"Bosquejo, CA","bareName":"Bosquejo","lat":39.83211,"lng":-122.03139,"distanceMi":56,"source":"gnis","rank":15},{"name":"Corning, CA","bareName":"Corning","lat":39.92821,"lng":-122.18202,"distanceMi":56,"source":"gnis","rank":16},{"name":"Capay, CA","bareName":"Capay","lat":39.76655,"lng":-122.06777,"distanceMi":61,"source":"gnis","rank":17},{"name":"Rancho De Farwell, CA","bareName":"Rancho De Farwell","lat":39.68211,"lng":-121.90388,"distanceMi":62,"source":"gnis","rank":18},{"name":"Orland, CA","bareName":"Orland","lat":39.74609,"lng":-122.18556,"distanceMi":66,"source":"gnis","rank":19},{"name":"Esquon, CA","bareName":"Esquon","lat":39.57933,"lng":-121.77721,"distanceMi":66,"source":"gnis","rank":20},{"name":"Dunsmuir, CA","bareName":"Dunsmuir","lat":41.23163,"lng":-122.27151,"distanceMi":67,"source":"gnis","rank":21},{"name":"Aguas Frias, CA","bareName":"Aguas Frias","lat":39.55961,"lng":-121.88721,"distanceMi":69,"source":"gnis","rank":22},{"name":"Oroville, CA","bareName":"Oroville","lat":39.49998,"lng":-121.56345,"distanceMi":69,"source":"gnis","rank":23},{"name":"Llano Seco, CA","bareName":"Llano Seco","lat":39.5735,"lng":-121.9561,"distanceMi":70,"source":"gnis","rank":24},{"name":"Portola, CA","bareName":"Portola","lat":39.80602,"lng":-120.46364,"distanceMi":70,"source":"gnis","rank":25},{"name":"Jacinto, CA","bareName":"Jacinto","lat":39.57294,"lng":-122.05055,"distanceMi":72,"source":"gnis","rank":26},{"name":"Fernandez, CA","bareName":"Fernandez","lat":39.43378,"lng":-121.64637,"distanceMi":74,"source":"gnis","rank":27},{"name":"Mount Shasta, CA","bareName":"Mount Shasta","lat":41.3207,"lng":-122.31505,"distanceMi":74,"source":"gnis","rank":28},{"name":"Biggs, CA","bareName":"Biggs","lat":39.41019,"lng":-121.71333,"distanceMi":77,"source":"gnis","rank":29},{"name":"Willows, CA","bareName":"Willows","lat":39.51491,"lng":-122.19949,"distanceMi":79,"source":"gnis","rank":30},{"name":"Larkins Childrens Rancho, CA","bareName":"Larkins Childrens Rancho","lat":39.4485,"lng":-122.05471,"distanceMi":80,"source":"gnis","rank":31},{"name":"Gridley, CA","bareName":"Gridley","lat":39.36223,"lng":-121.69709,"distanceMi":80,"source":"gnis","rank":32},{"name":"Weed, CA","bareName":"Weed","lat":41.41276,"lng":-122.38164,"distanceMi":81,"source":"gnis","rank":33},{"name":"Alturas, CA","bareName":"Alturas","lat":41.48976,"lng":-120.55157,"distanceMi":82,"source":"gnis","rank":34},{"name":"Honcut, CA","bareName":"Honcut","lat":39.29434,"lng":-121.56081,"distanceMi":83,"source":"gnis","rank":35},{"name":"Boga, CA","bareName":"Boga","lat":39.30823,"lng":-121.65109,"distanceMi":83,"source":"gnis","rank":36},{"name":"Loyalton, CA","bareName":"Loyalton","lat":39.67686,"lng":-120.24482,"distanceMi":84,"source":"gnis","rank":37},{"name":"Live Oak, CA","bareName":"Live Oak","lat":39.27881,"lng":-121.66245,"distanceMi":85,"source":"gnis","rank":38},{"name":"Nevada City, CA","bareName":"Nevada City","lat":39.26067,"lng":-121.02307,"distanceMi":88,"source":"gnis","rank":39},{"name":"Grass Valley, CA","bareName":"Grass Valley","lat":39.22374,"lng":-121.05247,"distanceMi":90,"source":"gnis","rank":40},{"name":"Marysville, CA","bareName":"Marysville","lat":39.15178,"lng":-121.5835,"distanceMi":93,"source":"gnis","rank":41},{"name":"New Helvetia, CA","bareName":"New Helvetia","lat":39.1624,"lng":-121.55665,"distanceMi":93,"source":"gnis","rank":42},{"name":"Colusa, CA","bareName":"Colusa","lat":39.22712,"lng":-122.04138,"distanceMi":94,"source":"gnis","rank":43},{"name":"Yuba City, CA","bareName":"Yuba City","lat":39.13477,"lng":-121.63815,"distanceMi":95,"source":"gnis","rank":44},{"name":"Colfax, CA","bareName":"Colfax","lat":39.09381,"lng":-120.95324,"distanceMi":100,"source":"gnis","rank":45},{"name":"Tulelake, CA","bareName":"Tulelake","lat":41.9533,"lng":-121.47523,"distanceMi":101,"source":"gnis","rank":46},{"name":"Johnson Rancho, CA","bareName":"Johnson Rancho","lat":39.0299,"lng":-121.43025,"distanceMi":101,"source":"gnis","rank":47},{"name":"Williams, CA","bareName":"Williams","lat":39.14979,"lng":-122.13898,"distanceMi":101,"source":"gnis","rank":48},{"name":"Jimeno, CA","bareName":"Jimeno","lat":39.08434,"lng":-121.91748,"distanceMi":101,"source":"gnis","rank":49}]},{"place_id":"nps:pinnacles","place_type":"national_park","towns":[{"name":"Soledad, CA","bareName":"Soledad","lat":36.43048,"lng":-121.32178,"distanceMi":9,"source":"gnis","rank":0},{"name":"Los Coches, CA","bareName":"Los Coches","lat":36.38053,"lng":-121.29744,"distanceMi":10,"source":"gnis","rank":1},{"name":"San Lorenzo, CA","bareName":"San Lorenzo","lat":36.36664,"lng":-121.0866,"distanceMi":10,"source":"gnis","rank":2},{"name":"Arroyo Seco, CA","bareName":"Arroyo Seco","lat":36.32692,"lng":-121.278,"distanceMi":12,"source":"gnis","rank":3},{"name":"Ex Mission Soledad, CA","bareName":"Ex Mission Soledad","lat":36.41275,"lng":-121.38161,"distanceMi":12,"source":"gnis","rank":4},{"name":"San Vicente, CA","bareName":"San Vicente","lat":36.50164,"lng":-121.393,"distanceMi":12,"source":"gnis","rank":5},{"name":"Greenfield, CA","bareName":"Greenfield","lat":36.32437,"lng":-121.24292,"distanceMi":12,"source":"gnis","rank":6},{"name":"Gonzales, CA","bareName":"Gonzales","lat":36.50555,"lng":-121.44277,"distanceMi":14,"source":"gnis","rank":7},{"name":"Posa De Los Ositos, CA","bareName":"Posa De Los Ositos","lat":36.27497,"lng":-121.19716,"distanceMi":15,"source":"gnis","rank":8},{"name":"Paraje de Sanchez, CA","bareName":"Paraje de Sanchez","lat":36.45525,"lng":-121.45828,"distanceMi":16,"source":"gnis","rank":9},{"name":"Rincon de la Puente del Monte, CA","bareName":"Rincon de la Puente del Monte","lat":36.62219,"lng":-121.44273,"distanceMi":17,"source":"gnis","rank":10},{"name":"Zanjones, CA","bareName":"Zanjones","lat":36.54163,"lng":-121.4794,"distanceMi":17,"source":"gnis","rank":11},{"name":"Real De Las Aguilas, CA","bareName":"Real De Las Aguilas","lat":36.72135,"lng":-121.07604,"distanceMi":17,"source":"gnis","rank":12},{"name":"Chualar, CA","bareName":"Chualar","lat":36.58247,"lng":-121.46217,"distanceMi":17,"source":"gnis","rank":13},{"name":"Cienega De Los Paicines, CA","bareName":"Cienega De Los Paicines","lat":36.7158,"lng":-121.29772,"distanceMi":17,"source":"gnis","rank":14},{"name":"Encinal Y Buena Esperanga, CA","bareName":"Encinal Y Buena Esperanga","lat":36.61497,"lng":-121.49301,"distanceMi":19,"source":"gnis","rank":15},{"name":"King City, CA","bareName":"King City","lat":36.21637,"lng":-121.13289,"distanceMi":19,"source":"gnis","rank":16},{"name":"Guadalupe Y Llanitos de los Correos, CA","bareName":"Guadalupe Y Llanitos de los Correos","lat":36.5308,"lng":-121.53662,"distanceMi":20,"source":"gnis","rank":17},{"name":"San Bernabe, CA","bareName":"San Bernabe","lat":36.17886,"lng":-121.10799,"distanceMi":22,"source":"gnis","rank":18},{"name":"Santa Ana Y Quien Sabe, CA","bareName":"Santa Ana Y Quien Sabe","lat":36.81746,"lng":-121.24133,"distanceMi":23,"source":"gnis","rank":19},{"name":"Los Tularcitos, CA","bareName":"Los Tularcitos","lat":36.43191,"lng":-121.59246,"distanceMi":23,"source":"gnis","rank":20},{"name":"El Alisal, CA","bareName":"El Alisal","lat":36.65997,"lng":-121.55134,"distanceMi":24,"source":"gnis","rank":21},{"name":"Cienega Del Gabilan, CA","bareName":"Cienega Del Gabilan","lat":36.74163,"lng":-121.4844,"distanceMi":24,"source":"gnis","rank":22},{"name":"San Benito, CA","bareName":"San Benito","lat":36.13886,"lng":-121.05326,"distanceMi":25,"source":"gnis","rank":23},{"name":"Llano De Buena Vista, CA","bareName":"Llano De Buena Vista","lat":36.63719,"lng":-121.62301,"distanceMi":26,"source":"gnis","rank":24},{"name":"Buena Vista, CA","bareName":"Buena Vista","lat":36.60469,"lng":-121.65607,"distanceMi":27,"source":"gnis","rank":25},{"name":"Salinas, CA","bareName":"Salinas","lat":36.68829,"lng":-121.63168,"distanceMi":28,"source":"gnis","rank":26},{"name":"Sausal, CA","bareName":"Sausal","lat":36.70441,"lng":-121.61746,"distanceMi":28,"source":"gnis","rank":27},{"name":"San Justo, CA","bareName":"San Justo","lat":36.83357,"lng":-121.44412,"distanceMi":28,"source":"gnis","rank":28},{"name":"Hollister, CA","bareName":"Hollister","lat":36.85561,"lng":-121.39861,"distanceMi":28,"source":"gnis","rank":29},{"name":"San Lucas, CA","bareName":"San Lucas","lat":36.08692,"lng":-121.02743,"distanceMi":29,"source":"gnis","rank":30},{"name":"La Natividad, CA","bareName":"La Natividad","lat":36.74135,"lng":-121.59218,"distanceMi":29,"source":"gnis","rank":31},{"name":"El Toro, CA","bareName":"El Toro","lat":36.58997,"lng":-121.71524,"distanceMi":30,"source":"gnis","rank":32},{"name":"San Joaquin, CA","bareName":"San Joaquin","lat":36.90079,"lng":-121.34967,"distanceMi":30,"source":"gnis","rank":33},{"name":"Panoche de San Juan Y Los Carrisali, CA","bareName":"Panoche de San Juan Y Los Carrisali","lat":36.88717,"lng":-120.97882,"distanceMi":30,"source":"gnis","rank":34},{"name":"Nacional, CA","bareName":"Nacional","lat":36.65496,"lng":-121.68051,"distanceMi":30,"source":"gnis","rank":35},{"name":"Milpitas, CA","bareName":"Milpitas","lat":36.07136,"lng":-121.30383,"distanceMi":30,"source":"gnis","rank":36},{"name":"Los Vergeles, CA","bareName":"Los Vergeles","lat":36.79885,"lng":-121.57079,"distanceMi":30,"source":"gnis","rank":37},{"name":"Rancho Corral de Tierra, CA","bareName":"Rancho Corral de Tierra","lat":36.52441,"lng":-121.73663,"distanceMi":31,"source":"gnis","rank":38},{"name":"Tract of Land Near San Juan Bautista, CA","bareName":"Tract of Land Near San Juan Bautista","lat":36.85274,"lng":-121.52579,"distanceMi":31,"source":"gnis","rank":39},{"name":"San Juan Bautista, CA","bareName":"San Juan Bautista","lat":36.84498,"lng":-121.53699,"distanceMi":31,"source":"gnis","rank":40},{"name":"El Chamisal, CA","bareName":"El Chamisal","lat":36.60441,"lng":-121.72635,"distanceMi":31,"source":"gnis","rank":41},{"name":"Bolsa De San Felipe, CA","bareName":"Bolsa De San Felipe","lat":36.9044,"lng":-121.413,"distanceMi":31,"source":"gnis","rank":42},{"name":"Los Laurelles, CA","bareName":"Los Laurelles","lat":36.50469,"lng":-121.74135,"distanceMi":31,"source":"gnis","rank":43},{"name":"Rincon De Sanjon, CA","bareName":"Rincon De Sanjon","lat":36.70385,"lng":-121.69968,"distanceMi":32,"source":"gnis","rank":44},{"name":"Los Gatos or Santa Rita, CA","bareName":"Los Gatos or Santa Rita","lat":36.72469,"lng":-121.68746,"distanceMi":32,"source":"gnis","rank":45},{"name":"Tract of Land in Monterey County, CA","bareName":"Tract of Land in Monterey County","lat":36.67246,"lng":-121.71107,"distanceMi":32,"source":"gnis","rank":46},{"name":"Bolsa De Las Escorpinas, CA","bareName":"Bolsa De Las Escorpinas","lat":36.74802,"lng":-121.65857,"distanceMi":32,"source":"gnis","rank":47},{"name":"Los Carneros, CA","bareName":"Los Carneros","lat":36.83079,"lng":-121.61024,"distanceMi":33,"source":"gnis","rank":48},{"name":"San Bernardo, CA","bareName":"San Bernardo","lat":36.05525,"lng":-120.93853,"distanceMi":33,"source":"gnis","rank":49}]},{"place_id":"nps:sequoia","place_type":"national_park","towns":[{"name":"Three Rivers, CA","bareName":"Three Rivers","lat":36.4386,"lng":-118.9023,"distanceMi":19,"source":"curated","rank":0},{"name":"Woodlake, CA","bareName":"Woodlake","lat":36.41306,"lng":-119.10055,"distanceMi":30,"source":"gnis","rank":1},{"name":"Lindsay, CA","bareName":"Lindsay","lat":36.2082,"lng":-119.08972,"distanceMi":35,"source":"gnis","rank":2},{"name":"Exeter, CA","bareName":"Exeter","lat":36.29408,"lng":-119.14597,"distanceMi":35,"source":"gnis","rank":3},{"name":"Farmersville, CA","bareName":"Farmersville","lat":36.30475,"lng":-119.20862,"distanceMi":38,"source":"gnis","rank":4},{"name":"Porterville, CA","bareName":"Porterville","lat":36.06443,"lng":-119.03373,"distanceMi":39,"source":"gnis","rank":5},{"name":"Orange Cove, CA","bareName":"Orange Cove","lat":36.62115,"lng":-119.31876,"distanceMi":43,"source":"gnis","rank":6},{"name":"Visalia, CA","bareName":"Visalia","lat":36.32763,"lng":-119.32687,"distanceMi":44,"source":"gnis","rank":7},{"name":"Dinuba, CA","bareName":"Dinuba","lat":36.54533,"lng":-119.39866,"distanceMi":46,"source":"gnis","rank":8},{"name":"Tulare, CA","bareName":"Tulare","lat":36.20006,"lng":-119.33999,"distanceMi":47,"source":"gnis","rank":9},{"name":"Reedley, CA","bareName":"Reedley","lat":36.59901,"lng":-119.44705,"distanceMi":50,"source":"gnis","rank":10},{"name":"Parlier, CA","bareName":"Parlier","lat":36.6087,"lng":-119.54338,"distanceMi":55,"source":"gnis","rank":11},{"name":"Kingsburg, CA","bareName":"Kingsburg","lat":36.51991,"lng":-119.55269,"distanceMi":55,"source":"gnis","rank":12},{"name":"Sanger, CA","bareName":"Sanger","lat":36.69897,"lng":-119.5575,"distanceMi":57,"source":"gnis","rank":13},{"name":"Selma, CA","bareName":"Selma","lat":36.57155,"lng":-119.61428,"distanceMi":59,"source":"gnis","rank":14},{"name":"Fowler, CA","bareName":"Fowler","lat":36.62413,"lng":-119.67471,"distanceMi":62,"source":"gnis","rank":15},{"name":"Hanford, CA","bareName":"Hanford","lat":36.32752,"lng":-119.65503,"distanceMi":62,"source":"gnis","rank":16},{"name":"Bishop, CA","bareName":"Bishop","lat":37.36654,"lng":-118.39585,"distanceMi":62,"source":"gnis","rank":17},{"name":"Corcoran, CA","bareName":"Corcoran","lat":36.08407,"lng":-119.56129,"distanceMi":62,"source":"gnis","rank":18},{"name":"Delano, CA","bareName":"Delano","lat":35.76616,"lng":-119.26354,"distanceMi":63,"source":"gnis","rank":19},{"name":"Clovis, CA","bareName":"Clovis","lat":36.82858,"lng":-119.68286,"distanceMi":66,"source":"gnis","rank":20},{"name":"McFarland, CA","bareName":"McFarland","lat":35.67618,"lng":-119.23169,"distanceMi":67,"source":"gnis","rank":21},{"name":"Laguna de Tache, CA","bareName":"Laguna de Tache","lat":36.41718,"lng":-119.7982,"distanceMi":69,"source":"gnis","rank":22},{"name":"Lemoore, CA","bareName":"Lemoore","lat":36.29493,"lng":-119.79834,"distanceMi":70,"source":"gnis","rank":23},{"name":"Fresno, CA","bareName":"Fresno","lat":36.783,"lng":-119.7939,"distanceMi":71,"source":"gnis","rank":24},{"name":"Wasco, CA","bareName":"Wasco","lat":35.59379,"lng":-119.36711,"distanceMi":76,"source":"gnis","rank":25},{"name":"Ridgecrest, CA","bareName":"Ridgecrest","lat":35.63072,"lng":-117.66217,"distanceMi":78,"source":"gnis","rank":26},{"name":"Shafter, CA","bareName":"Shafter","lat":35.47942,"lng":-119.20131,"distanceMi":78,"source":"gnis","rank":27},{"name":"Mammoth Lakes, CA","bareName":"Mammoth Lakes","lat":37.62727,"lng":-118.98996,"distanceMi":82,"source":"gnis","rank":28},{"name":"Bakersfield, CA","bareName":"Bakersfield","lat":35.35285,"lng":-119.03587,"distanceMi":83,"source":"gnis","rank":29},{"name":"El Tejon, CA","bareName":"El Tejon","lat":35.2883,"lng":-118.71705,"distanceMi":83,"source":"gnis","rank":30},{"name":"Kerman, CA","bareName":"Kerman","lat":36.72505,"lng":-120.06249,"distanceMi":85,"source":"gnis","rank":31},{"name":"Huron, CA","bareName":"Huron","lat":36.20424,"lng":-120.09532,"distanceMi":87,"source":"gnis","rank":32},{"name":"Arvin, CA","bareName":"Arvin","lat":35.19437,"lng":-118.83058,"distanceMi":90,"source":"gnis","rank":33},{"name":"Madera, CA","bareName":"Madera","lat":36.96318,"lng":-120.07793,"distanceMi":90,"source":"gnis","rank":34},{"name":"San Joaquin, CA","bareName":"San Joaquin","lat":36.60557,"lng":-120.18993,"distanceMi":91,"source":"gnis","rank":35},{"name":"Big Tree, CA","bareName":"Big Tree","lat":37.50994,"lng":-119.60211,"distanceMi":91,"source":"gnis","rank":36},{"name":"Avenal, CA","bareName":"Avenal","lat":36.03112,"lng":-120.11617,"distanceMi":92,"source":"gnis","rank":37},{"name":"Tehachapi, CA","bareName":"Tehachapi","lat":35.13243,"lng":-118.44254,"distanceMi":94,"source":"gnis","rank":38},{"name":"California City, CA","bareName":"California City","lat":35.15778,"lng":-117.87208,"distanceMi":100,"source":"gnis","rank":39},{"name":"Chowchilla, CA","bareName":"Chowchilla","lat":37.1095,"lng":-120.23496,"distanceMi":102,"source":"gnis","rank":40},{"name":"Mendota, CA","bareName":"Mendota","lat":36.75553,"lng":-120.37761,"distanceMi":102,"source":"gnis","rank":41},{"name":"Coalinga, CA","bareName":"Coalinga","lat":36.14555,"lng":-120.35467,"distanceMi":102,"source":"gnis","rank":42},{"name":"Taft, CA","bareName":"Taft","lat":35.1267,"lng":-119.42421,"distanceMi":106,"source":"gnis","rank":43},{"name":"San Emigdio, CA","bareName":"San Emigdio","lat":35.00025,"lng":-119.05095,"distanceMi":106,"source":"gnis","rank":44},{"name":"Firebaugh, CA","bareName":"Firebaugh","lat":36.85341,"lng":-120.4536,"distanceMi":108,"source":"gnis","rank":45},{"name":"Los Alamos Y Agua Caliente, CA","bareName":"Los Alamos Y Agua Caliente","lat":34.92914,"lng":-118.76205,"distanceMi":108,"source":"gnis","rank":46},{"name":"Cholame, CA","bareName":"Cholame","lat":35.8008,"lng":-120.31794,"distanceMi":109,"source":"gnis","rank":47},{"name":"Maricopa, CA","bareName":"Maricopa","lat":35.04482,"lng":-119.41359,"distanceMi":110,"source":"gnis","rank":48},{"name":"Castac, CA","bareName":"Castac","lat":34.89637,"lng":-118.86567,"distanceMi":111,"source":"gnis","rank":49}]},{"place_id":"nps:yosemite","place_type":"national_park","towns":[{"name":"Mariposa / El Portal, CA","bareName":"Mariposa","lat":37.4849,"lng":-119.9663,"distanceMi":35,"source":"curated","rank":0},{"name":"Big Tree, CA","bareName":"Big Tree","lat":37.50994,"lng":-119.60211,"distanceMi":25,"source":"gnis","rank":1},{"name":"Mammoth Lakes, CA","bareName":"Mammoth Lakes","lat":37.62727,"lng":-118.98996,"distanceMi":34,"source":"gnis","rank":2},{"name":"Las Mariposas, CA","bareName":"Las Mariposas","lat":37.52661,"lng":-120.09714,"distanceMi":38,"source":"gnis","rank":3},{"name":"Sonora, CA","bareName":"Sonora","lat":37.98189,"lng":-120.38282,"distanceMi":47,"source":"gnis","rank":4},{"name":"Angels, CA","bareName":"Angels","lat":38.07069,"lng":-120.55015,"distanceMi":57,"source":"gnis","rank":5},{"name":"Merced, CA","bareName":"Merced","lat":37.30573,"lng":-120.47791,"distanceMi":64,"source":"gnis","rank":6},{"name":"Chowchilla, CA","bareName":"Chowchilla","lat":37.1095,"lng":-120.23496,"distanceMi":65,"source":"gnis","rank":7},{"name":"Atwater, CA","bareName":"Atwater","lat":37.3529,"lng":-120.5959,"distanceMi":68,"source":"gnis","rank":8},{"name":"Waterford, CA","bareName":"Waterford","lat":37.64287,"lng":-120.75534,"distanceMi":68,"source":"gnis","rank":9},{"name":"Rancheria Del Rio Estanislao, CA","bareName":"Rancheria Del Rio Estanislao","lat":37.83743,"lng":-120.79522,"distanceMi":69,"source":"gnis","rank":10},{"name":"Madera, CA","bareName":"Madera","lat":36.96318,"lng":-120.07793,"distanceMi":69,"source":"gnis","rank":11},{"name":"Bishop, CA","bareName":"Bishop","lat":37.36654,"lng":-118.39585,"distanceMi":71,"source":"gnis","rank":12},{"name":"Oakdale, CA","bareName":"Oakdale","lat":37.76176,"lng":-120.84685,"distanceMi":72,"source":"gnis","rank":13},{"name":"Clovis, CA","bareName":"Clovis","lat":36.82858,"lng":-119.68286,"distanceMi":72,"source":"gnis","rank":14},{"name":"Livingston, CA","bareName":"Livingston","lat":37.38749,"lng":-120.72488,"distanceMi":73,"source":"gnis","rank":15},{"name":"Jackson, CA","bareName":"Jackson","lat":38.34849,"lng":-120.77283,"distanceMi":75,"source":"gnis","rank":16},{"name":"Hughson, CA","bareName":"Hughson","lat":37.60214,"lng":-120.86602,"distanceMi":75,"source":"gnis","rank":17},{"name":"Fresno, CA","bareName":"Fresno","lat":36.783,"lng":-119.7939,"distanceMi":76,"source":"gnis","rank":18},{"name":"Turlock, CA","bareName":"Turlock","lat":37.5053,"lng":-120.85906,"distanceMi":76,"source":"gnis","rank":19},{"name":"Eight Square Leagues On Stanislaus River, CA","bareName":"Eight Square Leagues On Stanislaus River","lat":37.81049,"lng":-120.923,"distanceMi":76,"source":"gnis","rank":20},{"name":"South Lake Tahoe, CA","bareName":"South Lake Tahoe","lat":38.92886,"lng":-119.98101,"distanceMi":77,"source":"gnis","rank":21},{"name":"Riverbank, CA","bareName":"Riverbank","lat":37.72597,"lng":-120.94336,"distanceMi":77,"source":"gnis","rank":22},{"name":"Sutter Creek, CA","bareName":"Sutter Creek","lat":38.37413,"lng":-120.81276,"distanceMi":78,"source":"gnis","rank":23},{"name":"Yerington, CA","bareName":"Yerington","lat":38.95544,"lng":-119.11007,"distanceMi":79,"source":"gnis","rank":24},{"name":"Amador City, CA","bareName":"Amador City","lat":38.419,"lng":-120.82327,"distanceMi":80,"source":"gnis","rank":25},{"name":"Ceres, CA","bareName":"Ceres","lat":37.59525,"lng":-120.96195,"distanceMi":80,"source":"gnis","rank":26},{"name":"Escalon, CA","bareName":"Escalon","lat":37.79127,"lng":-120.99818,"distanceMi":80,"source":"gnis","rank":27},{"name":"Sanger, CA","bareName":"Sanger","lat":36.69897,"lng":-119.5575,"distanceMi":81,"source":"gnis","rank":28},{"name":"Modesto, CA","bareName":"Modesto","lat":37.63748,"lng":-121.00277,"distanceMi":82,"source":"gnis","rank":29},{"name":"Sanjon De Santa Rita, CA","bareName":"Sanjon De Santa Rita","lat":37.10578,"lng":-120.69437,"distanceMi":82,"source":"gnis","rank":30},{"name":"Plymouth, CA","bareName":"Plymouth","lat":38.47763,"lng":-120.85845,"distanceMi":83,"source":"gnis","rank":31},{"name":"Ione, CA","bareName":"Ione","lat":38.36131,"lng":-120.94224,"distanceMi":84,"source":"gnis","rank":32},{"name":"Kerman, CA","bareName":"Kerman","lat":36.72505,"lng":-120.06249,"distanceMi":84,"source":"gnis","rank":33},{"name":"Dos Palos, CA","bareName":"Dos Palos","lat":36.98543,"lng":-120.63386,"distanceMi":85,"source":"gnis","rank":34},{"name":"Fowler, CA","bareName":"Fowler","lat":36.62413,"lng":-119.67471,"distanceMi":86,"source":"gnis","rank":35},{"name":"Firebaugh, CA","bareName":"Firebaugh","lat":36.85341,"lng":-120.4536,"distanceMi":86,"source":"gnis","rank":36},{"name":"Orange Cove, CA","bareName":"Orange Cove","lat":36.62115,"lng":-119.31876,"distanceMi":87,"source":"gnis","rank":37},{"name":"Parlier, CA","bareName":"Parlier","lat":36.6087,"lng":-119.54338,"distanceMi":87,"source":"gnis","rank":38},{"name":"Ripon, CA","bareName":"Ripon","lat":37.7417,"lng":-121.13101,"distanceMi":87,"source":"gnis","rank":39},{"name":"Arroyo Seco, CA","bareName":"Arroyo Seco","lat":38.34992,"lng":-121.01773,"distanceMi":87,"source":"gnis","rank":40},{"name":"Reedley, CA","bareName":"Reedley","lat":36.59901,"lng":-119.44705,"distanceMi":88,"source":"gnis","rank":41},{"name":"Orestimba, CA","bareName":"Orestimba","lat":37.33828,"lng":-120.99189,"distanceMi":88,"source":"gnis","rank":42},{"name":"Rancho Del Puerto, CA","bareName":"Rancho Del Puerto","lat":37.46244,"lng":-121.07495,"distanceMi":89,"source":"gnis","rank":43},{"name":"El Pescadero, CA","bareName":"El Pescadero","lat":37.54438,"lng":-121.12161,"distanceMi":89,"source":"gnis","rank":44},{"name":"Mendota, CA","bareName":"Mendota","lat":36.75553,"lng":-120.37761,"distanceMi":89,"source":"gnis","rank":45},{"name":"Selma, CA","bareName":"Selma","lat":36.57155,"lng":-119.61428,"distanceMi":89,"source":"gnis","rank":46},{"name":"Los Banos, CA","bareName":"Los Banos","lat":37.063,"lng":-120.84068,"distanceMi":90,"source":"gnis","rank":47},{"name":"Gustine, CA","bareName":"Gustine","lat":37.25255,"lng":-120.99553,"distanceMi":90,"source":"gnis","rank":48},{"name":"Newman, CA","bareName":"Newman","lat":37.31613,"lng":-121.02144,"distanceMi":90,"source":"gnis","rank":49}]},{"place_id":"nps:black-canyon-of-the-gunnison","place_type":"national_park","towns":[{"name":"Montrose, CO","bareName":"Montrose","lat":38.46893,"lng":-107.85903,"distanceMi":10,"source":"gnis","rank":0},{"name":"Crawford, CO","bareName":"Crawford","lat":38.70505,"lng":-107.60961,"distanceMi":11,"source":"gnis","rank":1},{"name":"Olathe, CO","bareName":"Olathe","lat":38.60839,"lng":-107.98331,"distanceMi":13,"source":"gnis","rank":2},{"name":"Hotchkiss, CO","bareName":"Hotchkiss","lat":38.799,"lng":-107.71339,"distanceMi":16,"source":"gnis","rank":3},{"name":"Orchard City, CO","bareName":"Orchard City","lat":38.81446,"lng":-107.97047,"distanceMi":21,"source":"gnis","rank":4},{"name":"Paonia, CO","bareName":"Paonia","lat":38.8698,"lng":-107.59209,"distanceMi":22,"source":"gnis","rank":5},{"name":"Delta, CO","bareName":"Delta","lat":38.756,"lng":-108.07718,"distanceMi":22,"source":"gnis","rank":6},{"name":"Cedaredge, CO","bareName":"Cedaredge","lat":38.8941,"lng":-107.9255,"distanceMi":24,"source":"gnis","rank":7},{"name":"Ridgway, CO","bareName":"Ridgway","lat":38.15718,"lng":-107.75461,"distanceMi":29,"source":"gnis","rank":8},{"name":"Ouray, CO","bareName":"Ouray","lat":38.02755,"lng":-107.67336,"distanceMi":38,"source":"gnis","rank":9},{"name":"Sawpit, CO","bareName":"Sawpit","lat":37.99472,"lng":-108.00215,"distanceMi":43,"source":"gnis","rank":10},{"name":"Norwood, CO","bareName":"Norwood","lat":38.12907,"lng":-108.29167,"distanceMi":43,"source":"gnis","rank":11},{"name":"Gunnison, CO","bareName":"Gunnison","lat":38.54798,"lng":-106.92462,"distanceMi":44,"source":"gnis","rank":12},{"name":"Lake City, CO","bareName":"Lake City","lat":38.03014,"lng":-107.31061,"distanceMi":44,"source":"gnis","rank":13},{"name":"Telluride, CO","bareName":"Telluride","lat":37.93958,"lng":-107.81816,"distanceMi":44,"source":"gnis","rank":14},{"name":"Mountain Village, CO","bareName":"Mountain Village","lat":37.93242,"lng":-107.85775,"distanceMi":45,"source":"gnis","rank":15},{"name":"Marble, CO","bareName":"Marble","lat":39.07167,"lng":-107.19076,"distanceMi":45,"source":"gnis","rank":16},{"name":"Crested Butte, CO","bareName":"Crested Butte","lat":38.8678,"lng":-106.97727,"distanceMi":46,"source":"gnis","rank":17},{"name":"Collbran, CO","bareName":"Collbran","lat":39.24001,"lng":-107.96353,"distanceMi":47,"source":"gnis","rank":18},{"name":"Mount Crested Butte, CO","bareName":"Mount Crested Butte","lat":38.90831,"lng":-106.9606,"distanceMi":48,"source":"gnis","rank":19},{"name":"Nucla, CO","bareName":"Nucla","lat":38.26669,"lng":-108.54871,"distanceMi":49,"source":"gnis","rank":20},{"name":"Palisade, CO","bareName":"Palisade","lat":39.10833,"lng":-108.35728,"distanceMi":50,"source":"gnis","rank":21},{"name":"Ophir, CO","bareName":"Ophir","lat":37.85682,"lng":-107.83125,"distanceMi":50,"source":"gnis","rank":22},{"name":"Naturita, CO","bareName":"Naturita","lat":38.21835,"lng":-108.56664,"distanceMi":51,"source":"gnis","rank":23},{"name":"Silverton, CO","bareName":"Silverton","lat":37.81088,"lng":-107.66475,"distanceMi":53,"source":"gnis","rank":24},{"name":"Grand Junction, CO","bareName":"Grand Junction","lat":39.08784,"lng":-108.56796,"distanceMi":57,"source":"gnis","rank":25},{"name":"De Beque, CO","bareName":"De Beque","lat":39.31048,"lng":-108.20504,"distanceMi":57,"source":"gnis","rank":26},{"name":"Snowmass Village, CO","bareName":"Snowmass Village","lat":39.2212,"lng":-106.93918,"distanceMi":62,"source":"gnis","rank":27},{"name":"Rico, CO","bareName":"Rico","lat":37.68909,"lng":-108.03169,"distanceMi":63,"source":"gnis","rank":28},{"name":"Parachute, CO","bareName":"Parachute","lat":39.44945,"lng":-108.05267,"distanceMi":63,"source":"gnis","rank":29},{"name":"Carbondale, CO","bareName":"Carbondale","lat":39.39496,"lng":-107.21479,"distanceMi":63,"source":"gnis","rank":30},{"name":"Aspen, CO","bareName":"Aspen","lat":39.19513,"lng":-106.83678,"distanceMi":65,"source":"gnis","rank":31},{"name":"Pitkin, CO","bareName":"Pitkin","lat":38.60873,"lng":-106.51493,"distanceMi":66,"source":"gnis","rank":32},{"name":"Rifle, CO","bareName":"Rifle","lat":39.53621,"lng":-107.77293,"distanceMi":66,"source":"gnis","rank":33},{"name":"Silt, CO","bareName":"Silt","lat":39.5483,"lng":-107.65331,"distanceMi":67,"source":"gnis","rank":34},{"name":"the City of Creede, CO","bareName":"the City of Creede","lat":37.8486,"lng":-106.92516,"distanceMi":67,"source":"gnis","rank":35},{"name":"Basalt, CO","bareName":"Basalt","lat":39.36885,"lng":-107.03039,"distanceMi":67,"source":"gnis","rank":36},{"name":"Fruita, CO","bareName":"Fruita","lat":39.15484,"lng":-108.73046,"distanceMi":67,"source":"gnis","rank":37},{"name":"Glenwood Springs, CO","bareName":"Glenwood Springs","lat":39.5456,"lng":-107.33472,"distanceMi":70,"source":"gnis","rank":38},{"name":"New Castle, CO","bareName":"New Castle","lat":39.57752,"lng":-107.52669,"distanceMi":70,"source":"gnis","rank":39},{"name":"Carbonate, CO","bareName":"Carbonate","lat":39.74431,"lng":-107.33915,"distanceMi":84,"source":"gnis","rank":40},{"name":"Dove Creek, CO","bareName":"Dove Creek","lat":37.76685,"lng":-108.90718,"distanceMi":84,"source":"gnis","rank":41},{"name":"Gypsum, CO","bareName":"Gypsum","lat":39.64271,"lng":-106.93538,"distanceMi":85,"source":"gnis","rank":42},{"name":"South Fork, CO","bareName":"South Fork","lat":37.66911,"lng":-106.64179,"distanceMi":87,"source":"gnis","rank":43},{"name":"Dolores, CO","bareName":"Dolores","lat":37.4741,"lng":-108.4999,"distanceMi":87,"source":"gnis","rank":44},{"name":"Eagle, CO","bareName":"Eagle","lat":39.63228,"lng":-106.81998,"distanceMi":88,"source":"gnis","rank":45},{"name":"Buena Vista, CO","bareName":"Buena Vista","lat":38.832,"lng":-106.13867,"distanceMi":88,"source":"gnis","rank":46},{"name":"Castle Valley, CO","bareName":"Castle Valley","lat":38.63213,"lng":-109.39606,"distanceMi":89,"source":"gnis","rank":47},{"name":"Bonanza, CO","bareName":"Bonanza","lat":38.29662,"lng":-106.14188,"distanceMi":89,"source":"gnis","rank":48},{"name":"Mancos, CO","bareName":"Mancos","lat":37.34665,"lng":-108.29385,"distanceMi":90,"source":"gnis","rank":49}]},{"place_id":"nps:great-sand-dunes","place_type":"national_park","towns":[{"name":"Hooper, CO","bareName":"Hooper","lat":37.74598,"lng":-105.87775,"distanceMi":16,"source":"gnis","rank":0},{"name":"Crestone, CO","bareName":"Crestone","lat":37.99453,"lng":-105.69622,"distanceMi":19,"source":"gnis","rank":1},{"name":"Blanca, CO","bareName":"Blanca","lat":37.43927,"lng":-105.51355,"distanceMi":21,"source":"gnis","rank":2},{"name":"Alamosa, CO","bareName":"Alamosa","lat":37.47604,"lng":-105.87776,"distanceMi":24,"source":"gnis","rank":3},{"name":"Moffat, CO","bareName":"Moffat","lat":38.00267,"lng":-105.90653,"distanceMi":25,"source":"gnis","rank":4},{"name":"Center, CO","bareName":"Center","lat":37.75124,"lng":-106.11057,"distanceMi":28,"source":"gnis","rank":5},{"name":"Westcliffe, CO","bareName":"Westcliffe","lat":38.13395,"lng":-105.46541,"distanceMi":29,"source":"gnis","rank":6},{"name":"Silver Cliff, CO","bareName":"Silver Cliff","lat":38.1204,"lng":-105.4104,"distanceMi":29,"source":"gnis","rank":7},{"name":"Monte Vista, CO","bareName":"Monte Vista","lat":37.5789,"lng":-106.15007,"distanceMi":32,"source":"gnis","rank":8},{"name":"La Veta, CO","bareName":"La Veta","lat":37.50857,"lng":-105.0085,"distanceMi":36,"source":"gnis","rank":9},{"name":"Vigil and Saint Vrain, CO","bareName":"Vigil and Saint Vrain","lat":37.74446,"lng":-104.91722,"distanceMi":37,"source":"gnis","rank":10},{"name":"Sanford, CO","bareName":"Sanford","lat":37.25741,"lng":-105.90078,"distanceMi":37,"source":"gnis","rank":11},{"name":"San Luis, CO","bareName":"San Luis","lat":37.20238,"lng":-105.42252,"distanceMi":38,"source":"gnis","rank":12},{"name":"La Jara, CO","bareName":"La Jara","lat":37.27353,"lng":-105.95973,"distanceMi":38,"source":"gnis","rank":13},{"name":"Rye, CO","bareName":"Rye","lat":37.92129,"lng":-104.93194,"distanceMi":38,"source":"gnis","rank":14},{"name":"Saguache, CO","bareName":"Saguache","lat":38.08628,"lng":-106.14106,"distanceMi":39,"source":"gnis","rank":15},{"name":"Del Norte, CO","bareName":"Del Norte","lat":37.67847,"lng":-106.35395,"distanceMi":42,"source":"gnis","rank":16},{"name":"Manassa, CO","bareName":"Manassa","lat":37.17385,"lng":-105.93728,"distanceMi":43,"source":"gnis","rank":17},{"name":"Romeo, CO","bareName":"Romeo","lat":37.17183,"lng":-105.98542,"distanceMi":44,"source":"gnis","rank":18},{"name":"Walsenburg, CO","bareName":"Walsenburg","lat":37.6306,"lng":-104.78173,"distanceMi":45,"source":"gnis","rank":19},{"name":"Bonanza, CO","bareName":"Bonanza","lat":38.29662,"lng":-106.14188,"distanceMi":49,"source":"gnis","rank":20},{"name":"Rockvale, CO","bareName":"Rockvale","lat":38.36443,"lng":-105.16453,"distanceMi":50,"source":"gnis","rank":21},{"name":"Coal Creek, CO","bareName":"Coal Creek","lat":38.36218,"lng":-105.14221,"distanceMi":50,"source":"gnis","rank":22},{"name":"Williamsburg, CO","bareName":"Williamsburg","lat":38.38399,"lng":-105.171,"distanceMi":51,"source":"gnis","rank":23},{"name":"Antonito, CO","bareName":"Antonito","lat":37.07625,"lng":-106.01034,"distanceMi":51,"source":"gnis","rank":24},{"name":"Florence, CO","bareName":"Florence","lat":38.38364,"lng":-105.11147,"distanceMi":52,"source":"gnis","rank":25},{"name":"Brookside, CO","bareName":"Brookside","lat":38.4135,"lng":-105.19096,"distanceMi":52,"source":"gnis","rank":26},{"name":"Cañon City, CO","bareName":"Cañon City","lat":38.44303,"lng":-105.22021,"distanceMi":53,"source":"gnis","rank":27},{"name":"Aguilar, CO","bareName":"Aguilar","lat":37.40363,"lng":-104.65505,"distanceMi":56,"source":"gnis","rank":28},{"name":"South Fork, CO","bareName":"South Fork","lat":37.66911,"lng":-106.64179,"distanceMi":57,"source":"gnis","rank":29},{"name":"Salida, CO","bareName":"Salida","lat":38.52988,"lng":-105.99793,"distanceMi":59,"source":"gnis","rank":30},{"name":"Poncha Springs, CO","bareName":"Poncha Springs","lat":38.51766,"lng":-106.07259,"distanceMi":60,"source":"gnis","rank":31},{"name":"Cokedale, CO","bareName":"Cokedale","lat":37.14423,"lng":-104.6216,"distanceMi":67,"source":"gnis","rank":32},{"name":"Questa, CO","bareName":"Questa","lat":36.71232,"lng":-105.59925,"distanceMi":70,"source":"gnis","rank":33},{"name":"Trinidad, CO","bareName":"Trinidad","lat":37.17505,"lng":-104.49079,"distanceMi":72,"source":"gnis","rank":34},{"name":"Victor, CO","bareName":"Victor","lat":38.70874,"lng":-105.1419,"distanceMi":72,"source":"gnis","rank":35},{"name":"Red River, CO","bareName":"Red River","lat":36.70377,"lng":-105.39743,"distanceMi":72,"source":"gnis","rank":36},{"name":"the City of Creede, CO","bareName":"the City of Creede","lat":37.8486,"lng":-106.92516,"distanceMi":73,"source":"gnis","rank":37},{"name":"Starkville, CO","bareName":"Starkville","lat":37.11683,"lng":-104.52331,"distanceMi":73,"source":"gnis","rank":38},