{"id":"george-parks-highway","generatedAt":"2026-07-10T18:35:17.820Z","designation":"National Scenic Byway","parkCode":null,"source":{"roadArticle":"George Parks Highway","revisionId":1339372877,"url":"https://en.wikipedia.org/wiki/George_Parks_Highway"},"attribution":{"license":"CC BY-SA 4.0","licenseUrl":"https://creativecommons.org/licenses/by-sa/4.0/","articleUrl":"https://en.wikipedia.org/wiki/George_Parks_Highway","text":"Route, junction, and history details adapted from the Wikipedia article \"George Parks Highway\", by Wikipedia contributors, licensed under CC BY-SA 4.0."},"sources":[{"name":"Wikipedia","src":"wikipedia","url":"https://en.wikipedia.org/wiki/George_Parks_Highway","revisionId":1339372877,"retrievedAt":"2026-07-10T18:35:17.820Z"},{"name":"Federal Highway Administration — National Scenic Byways","src":"fhwa","url":"https://www.fhwa.dot.gov/byways","retrievedAt":"2026-07-10T18:35:17.820Z"}],"endpoints":{"from":"Gateway, AK","to":"Fairbanks, AK","via":["Wasilla, AK","Denali State Park, AK","Denali National Park and Preserve, AK"]},"itinerary":[{"seq":1,"place":"Gateway","state":"AK","kind":"terminus","mileFromStart":0,"toNextMi":null,"note":"The drive begins here","control":["AK-1 south (Glenn Highway)","Trunk Road","Fairview Loop","Hyer Road"],"lat":61.57638889,"lng":-149.2525,"src":"wikipedia"},{"seq":2,"place":"Lakes","state":"AK","kind":"town","mileFromStart":null,"toNextMi":null,"note":"Junction toward Seward-Meridian Parkway","control":["Seward-Meridian Parkway"],"lat":61.6075,"lng":-149.30416667,"src":"wikipedia"},{"seq":3,"place":"Wasilla","state":"AK","kind":"town","mileFromStart":3.7,"toNextMi":null,"note":"Junction toward West end of Wasilla freeway section","control":["West end of Wasilla freeway section","Palmer-Wasilla Highway","Museum Drive"],"lat":61.58166667,"lng":-149.4525,"src":"wikipedia"},{"seq":4,"place":"Houston","state":"AK","kind":"crossing","mileFromStart":null,"toNextMi":null,"note":"Junction toward Big Lake Road","control":["Big Lake Road"],"lat":61.60833333,"lng":-149.77361111,"src":"wikipedia"},{"seq":5,"place":"Denali State Park","state":"AK","kind":"park-entrance","mileFromStart":null,"toNextMi":null,"note":"Gateway to Entering Denali State Park","control":["Entering Denali State Park","Exiting Denali State Park"],"lat":62.77,"lng":-150.05333333,"src":"wikipedia"},{"seq":6,"place":"Cantwell","state":"AK","kind":"town","mileFromStart":null,"toNextMi":null,"note":"Junction toward AK-8 east (Denali Highway)","control":["AK-8 east (Denali Highway)"],"lat":63.388,"lng":-148.900204,"src":"wikipedia"},{"seq":7,"place":"Denali National Park and Preserve","state":"AK","kind":"park-entrance","mileFromStart":null,"toNextMi":null,"note":"Gateway to Denali National Park","control":["Entrance to Denali National Park and Preserve"],"lat":63.43,"lng":-150.32,"src":"wikipedia"},{"seq":8,"place":"College","state":"AK","kind":"town","mileFromStart":null,"toNextMi":null,"note":"Junction toward West end of Fairbanks freeway section","control":["West end of Fairbanks freeway section","Geist Road","Chena Pump Road—University of Alaska","Airport Way west— Fairbanks International Airport","Airport Way east","University Avenue"],"lat":64.848302,"lng":-147.827194,"src":"wikipedia"},{"seq":9,"place":"Fairbanks","state":"AK","kind":"terminus","mileFromStart":321.9,"toNextMi":null,"note":"The drive ends here","control":["Peger Road","Lathrop Street","Cushman Street","Old Richardson Highway","North Pole","Delta Junction"],"lat":64.84361111,"lng":-147.72305556,"src":"wikipedia"}],"history":{"paragraphs":[],"sourceSection":null,"src":"wikipedia"},"highlights":[{"n":"Gateway","d":"The drive begins here","q":"Gateway","lat":61.57638889,"lng":-149.2525,"src":"wikipedia"},{"n":"Houston","d":"Junction toward Big Lake Road","q":"Houston","lat":61.60833333,"lng":-149.77361111,"src":"wikipedia"},{"n":"Denali State Park","d":"Gateway to Entering Denali State Park","q":"Denali State Park","lat":62.77,"lng":-150.05333333,"src":"wikipedia"},{"n":"Denali National Park and Preserve","d":"Gateway to Denali National Park","q":"Denali National Park and Preserve","lat":63.43,"lng":-150.32,"src":"wikipedia"},{"n":"Fairbanks","d":"The drive ends here","q":"Fairbanks","lat":64.84361111,"lng":-147.72305556,"src":"wikipedia"}],"references":[{"n":1,"text":"Federal Highway Administration, National Highway System Viewer Archived 2007-08-27 at the Wayback Machine. Retrieved August 2007.","url":"http://hepgis.fhwa.dot.gov/hepgis_v2/Highway/Map.aspx"},{"n":2,"text":"Alaska Department of Transportation and Public Facilities, Dwight D. Eisenhower Interstate Routes Archived 2009-07-27 at the Wayback Machine, April 2006","url":"http://www.dot.state.ak.us/stwdplng/highwaydata/pub/routelists/interstate_mapset2006final.pdf"}]}