{"id":"old-king-s-highway","generatedAt":"2026-07-10T18:35:17.820Z","designation":"National Scenic Byway","parkCode":null,"source":{"roadArticle":"Massachusetts Route 6A","revisionId":1297971464,"url":"https://en.wikipedia.org/wiki/Massachusetts_Route_6A"},"attribution":{"license":"CC BY-SA 4.0","licenseUrl":"https://creativecommons.org/licenses/by-sa/4.0/","articleUrl":"https://en.wikipedia.org/wiki/Massachusetts_Route_6A","text":"Route, junction, and history details adapted from the Wikipedia article \"Massachusetts Route 6A\", by Wikipedia contributors, licensed under CC BY-SA 4.0."},"sources":[{"name":"Wikipedia","src":"wikipedia","url":"https://en.wikipedia.org/wiki/Massachusetts_Route_6A","revisionId":1297971464,"retrievedAt":"2026-07-10T18:35:17.820Z"},{"name":"Federal Highway Administration — National Scenic Byways","src":"fhwa","url":"https://www.fhwa.dot.gov/byways","retrievedAt":"2026-07-10T18:35:17.820Z"}],"endpoints":{"from":"Bourne, MA","to":"Provincetown, MA","via":["West Barnstable, MA","Brewster, MA","Eastham, MA"]},"itinerary":[{"seq":1,"place":"Bourne","state":"MA","kind":"terminus","mileFromStart":0,"toNextMi":1.3,"note":"The drive begins here","control":["Hyannis","Provincetown","New Bedford","Providence","RI"],"lat":41.74111111,"lng":-70.59944444,"src":"wikipedia"},{"seq":2,"place":"Sandwich","state":"MA","kind":"town","mileFromStart":1.3,"toNextMi":9.1,"note":"Junction toward Sandwich & Mashpee","control":["Sandwich","Mashpee"],"lat":41.75888889,"lng":-70.49444444,"src":"wikipedia"},{"seq":3,"place":"West Barnstable","state":"MA","kind":"town","mileFromStart":10.4,"toNextMi":13.7,"note":"Junction toward Marstons Mills & Osterville","control":["Marstons Mills","Osterville","Hyannis","Chatham"],"lat":41.70555556,"lng":-70.37444444,"src":"wikipedia"},{"seq":4,"place":"East Dennis","state":"MA","kind":"town","mileFromStart":24.1,"toNextMi":4.1,"note":"Junction toward South Dennis","control":["South Dennis"],"lat":41.74027778,"lng":-70.15722222,"src":"wikipedia"},{"seq":5,"place":"Brewster","state":"MA","kind":"town","mileFromStart":28.2,"toNextMi":4.8,"note":"Junction toward East Harwich & Chatham","control":["East Harwich","Chatham","Harwich Center","Harwichport"],"lat":41.76,"lng":-70.08333333,"src":"wikipedia"},{"seq":6,"place":"Orleans","state":"MA","kind":"town","mileFromStart":33,"toNextMi":2,"note":"Junction toward Hyannis & New Bedford","control":["Hyannis","New Bedford","Eastham","Provincetown","Chatham","Falmouth"],"lat":41.78972222,"lng":-69.99027778,"src":"wikipedia"},{"seq":7,"place":"Eastham","state":"MA","kind":"town","mileFromStart":35,"toNextMi":18.6,"note":"Junction toward Hyannis & New Bedford","control":["Hyannis","New Bedford","Eastham","Provincetown"],"lat":41.83,"lng":-69.97444444,"src":"wikipedia"},{"seq":8,"place":"Truro","state":"MA","kind":"town","mileFromStart":53.6,"toNextMi":8.8,"note":"Junction toward Provincetown","control":["Provincetown"],"lat":41.99333333,"lng":-70.05027778,"src":"wikipedia"},{"seq":9,"place":"Provincetown","state":"MA","kind":"terminus","mileFromStart":62.4,"toNextMi":null,"note":"The drive ends here","control":["New Bedford","Race Point"],"lat":42.058,"lng":-70.179,"src":"wikipedia"}],"history":{"paragraphs":["Route 6A was first signed upon partial completion of the Mid-Cape Highway, which was Cape Cod's first freeway in 1953, traveling between the Sagamore Bridge in Bourne and Route 132 in Barnstable.[citation needed] A second stretch in 1954 was signed when a US 6 bypass was constructed in Truro and Provincetown, although in Provincetown, Route 6A was signed along Bradford Street instead of US 6's former routing on Commercial Street, as the latter road had become one-way westbound.[citation needed] A third stretch in 1956 was signed between Route 132 in Barnstable and the Orleans–Eastham town line when the US 6 freeway was completed.[citation needed]","Route 6A does not officially exist in Eastham or Wellfleet as the road is in an unsigned concurrency with US 6.","The road is generally considered to be Cape Cod's most historic and scenic highway. The Barnstable portion has been listed on the National Register of Historic Places as the Old King's Highway Historic District.","The only portions of the Provincetown section under state (or federal) maintenance are the Commercial Street section (including Bradford between Commercial and Allerton) and the Province Lands Road section (which runs through National Park land). The remainder of the Bradford Street section has always been locally maintained, and though that section carries the occasional mile marker from the last postings in 1979, it has always only sparsely been signed as Route 6A.[citation needed]"],"sourceSection":"History","src":"wikipedia"},"highlights":[{"n":"Bourne","d":"The drive begins here","q":"Bourne","lat":41.74111111,"lng":-70.59944444,"src":"wikipedia"},{"n":"Provincetown","d":"The drive ends here","q":"Provincetown","lat":42.058,"lng":-70.179,"src":"wikipedia"}],"references":[{"n":1,"text":"MassDOT Planning Division. \"Massachusetts Route Log Application\". Massachusetts Department of Transportation. Retrieved January 23, 2016.","url":"http://services.massdot.state.ma.us/mrla/MRLAprintRouteLog.htm?routekey=SR6A%20EB/pages=1-35/"},{"n":2,"text":"\"NPGallery Asset Detail\". npgallery.nps.gov. Retrieved June 29, 2025.","url":"https://npgallery.nps.gov/AssetDetail/NRIS/87000314"}]}